{"version": 0.6, "generator": "Overpass API 0.7.62.1 084b4234", "osm3s": {"timestamp_osm_base": "2024-06-03T12:11:22Z", "copyright": "The data included in this document is from www.openstreetmap.org. The data is made available under ODbL."}, "elements": [{"type": "node", "id": 42440935, "lat": 40.7704036, "lon": -73.9875948, "tags": {"highway": "traffic_signals", "traffic_signals:direction": "forward"}}, {"type": "node", "id": 42450341, "lat": 40.7697859, "lon": -73.9880556, "tags": {"highway": "traffic_signals", "traffic_signals:direction": "forward"}}, {"type": "node", "id": 198830378, "lat": 40.8739586, "lon": -73.9129064}, {"type": "node", "id": 198830381, "lat": 40.874191, "lon": -73.9138105}, {"type": "node", "id": 219659248, "lat": 40.6899034, "lon": -73.9771215}, {"type": "node", "id": 261356789, "lat": 40.7557525, "lon": -73.704223, "tags": {"highway": "traffic_signals", "traffic_signals": "signal"}}, {"type": "node", "id": 261356894, "lat": 40.7591263, "lon": -73.7045932}, {"type": "node", "id": 261356895, "lat": 40.7590491, "lon": -73.7044522}, {"type": "node", "id": 261356896, "lat": 40.7590046, "lon": -73.7043873}, {"type": "node", "id": 261356897, "lat": 40.7589041, "lon": -73.7043287}, {"type": "node", "id": 261356898, "lat": 40.7585955, "lon": -73.704326}, {"type": "node", "id": 261431423, "lat": 40.758369, "lon": -73.704423}, {"type": "node", "id": 261431424, "lat": 40.758094, "lon": -73.704485}, {"type": "node", "id": 261431425, "lat": 40.757897, "lon": -73.704501}, {"type": "node", "id": 261431426, "lat": 40.757595, "lon": -73.704495}, {"type": "node", "id": 261431429, "lat": 40.756315, "lon": -73.704313}, {"type": "node", "id": 261431433, "lat": 40.755244, "lon": -73.704141}, {"type": "node", "id": 296377486, "lat": 40.7369253, "lon": -74.0396118, "tags": {"amenity": "fire_station", "created_by": "Merkaartor 0.11", "name": "Hoboken Fire Dept Ladder 2 Engine 5"}}, {"type": "node", "id": 297103096, "lat": 40.7420129, "lon": -74.034241}, {"type": "node", "id": 297103105, "lat": 40.7407153, "lon": -74.0337727}, {"type": "node", "id": 297103107, "lat": 40.7408195, "lon": -74.0345654}, {"type": "node", "id": 357558203, "lat": 40.7454517, "lon": -73.8881519}, {"type": "node", "id": 357558861, "lat": 40.7651137, "lon": -73.9577419}, {"type": "node", "id": 357563570, "lat": 40.81413, "lon": -73.9405535}, {"type": "node", "id": 357566553, "lat": 40.6997748, "lon": -73.81633}, {"type": "node", "id": 357566750, "lat": 40.6603642, "lon": -73.9341153}, {"type": "node", "id": 357568917, "lat": 40.7736575, "lon": -73.9616995}, {"type": "node", "id": 357569579, "lat": 40.7532627, "lon": -73.7068105}, {"type": "node", "id": 357571389, "lat": 40.7840897, "lon": -73.9443322}, {"type": "node", "id": 357571909, "lat": 40.8800853, "lon": -73.8798439, "tags": {"addr:city": "Bronx", "addr:housenumber": "111", "addr:postcode": "10467", "addr:street": "East 210th Street", "amenity": "hospital", "beds": "726", "emergency": "yes", "gnis:feature_id": "957548", "healthcare": "hospital", "name": "Montefiore Medical Center West Campus Moses Division Hospital", "opening_hours": "24/7", "operator": "Montefiore Health System", "phone": "+1 718 920 4321", "website": "https://www.montefiore.org/west", "wikidata": "Q6905066", "wikipedia": "en:Montefiore Medical Center"}}, {"type": "node", "id": 357572587, "lat": 40.7884033, "lon": -73.9527703}, {"type": "node", "id": 357583568, "lat": 40.6920773, "lon": -73.7672813}, {"type": "node", "id": 357587608, "lat": 40.6367295, "lon": -74.1044478}, {"type": "node", "id": 357591073, "lat": 40.6546751, "lon": -73.943608}, {"type": "node", "id": 357607640, "lat": 40.8464723, "lon": -73.8388275, "tags": {"addr:city": "Bronx", "addr:housenumber": "1300", "addr:postcode": "10461", "addr:state": "NY", "addr:street": "Waters Place", "amenity": "hospital", "emergency": "no", "gnis:feature_id": "1993274", "healthcare": "hospital", "healthcare:speciality": "psychiatry", "name": "New York City Children's Center Bronx Campus", "phone": "+1 718 239 3600", "website": "https://www.omh.ny.gov/omhweb/facilities/nyccc/bcpc/"}}, {"type": "node", "id": 357607688, "lat": 40.7865276, "lon": -73.9322574, "tags": {"access": "private", "addr:city": "Wards Island", "addr:housenumber": "600", "addr:postcode": "10029", "addr:street": "East 125th Street", "amenity": "hospital", "emergency": "no", "gnis:feature_id": "1993311", "healthcare": "hospital", "healthcare:speciality": "psychiatry", "name": "Kirby Forensic Psychiatric Center", "phone": "+1 646 672 5800", "website": "https://www.omh.ny.gov/omhweb/facilities/krpc/", "wikidata": "Q78638788"}}, {"type": "node", "id": 357607743, "lat": 40.7638031, "lon": -73.9561779}, {"type": "node", "id": 357611226, "lat": 40.8438054, "lon": -73.9114122}, {"type": "node", "id": 357611253, "lat": 40.8803581, "lon": -73.8813965, "tags": {"addr:city": "Bronx", "addr:housenumber": "3424", "addr:postcode": "10467", "addr:street": "Kossuth Avenue", "amenity": "hospital", "emergency": "yes", "gnis:feature_id": "2072352", "healthcare": "hospital", "name": "North Central Bronx Hospital", "opening_hours": "24/7", "operator": "NYC Health + Hospitals", "phone": "+1 718 519 5000", "website": "https://www.nychealthandhospitals.org/northcentralbronx/", "wikidata": "Q96396296"}}, {"type": "node", "id": 357611569, "lat": 40.8431665, "lon": -73.9096694}, {"type": "node", "id": 357612473, "lat": 40.8403228, "lon": -73.8484468}, {"type": "node", "id": 357614539, "lat": 40.8942234, "lon": -73.8604054}, {"type": "node", "id": 357616245, "lat": 40.7851459, "lon": -73.9279094, "tags": {"addr:city": "New York", "addr:housenumber": "13", "addr:postcode": "10029", "addr:street": "Hell Gate Circle", "amenity": "hospital", "beds": "231", "emergency": "no", "gnis:feature_id": "2076782", "healthcare": "hospital", "healthcare:speciality": "psychiatry", "name": "George Rosenfeld Center for Recovery", "old_name": "Manhattan Children's Psychiatric Center", "operator": "Odyssey House", "phone": "+1 212 426 6633", "short_name": "GRCR", "website": "https://odysseyhousenyc.org/george-rosenfeld-center-for-recovery/"}}, {"type": "node", "id": 357616299, "lat": 40.8729978, "lon": -73.9121542}, {"type": "node", "id": 357616766, "lat": 40.5160259, "lon": -74.1967329}, {"type": "node", "id": 357616936, "lat": 40.7538889, "lon": -73.7083333, "tags": {"addr:city": "New Hyde Park", "addr:housenumber": "269-01", "addr:postcode": "11040", "addr:street": "76th Avenue", "amenity": "hospital", "beds": "202", "emergency": "yes", "gnis:feature_id": "2079409", "healthcare": "hospital", "healthcare:speciality": "paediatrics", "name": "Cohen\u2019s Children\u2019s Medical Center", "old_name": "Helen and Irving Schneider Children's Hospital", "opening_hours": "24/7", "operator": "Northwell Health", "website": "https://childrenshospital.northwell.edu/"}}, {"type": "node", "id": 357618377, "lat": 40.7683028, "lon": -73.9250907}, {"type": "node", "id": 357618468, "lat": 40.7522333, "lon": -73.7080817}, {"type": "node", "id": 357618474, "lat": 40.7526945, "lon": -73.7091261}, {"type": "node", "id": 357618477, "lat": 40.7526863, "lon": -73.7092522}, {"type": "node", "id": 357620244, "lat": 40.7377778, "lon": -74.0008333, "tags": {"addr:city": "New York", "addr:housenumber": "30", "addr:postcode": "10011", "addr:street": "7th Avenue", "amenity": "hospital", "check_date": "2024-01-11", "emergency": "yes", "gnis:feature_id": "2082882", "healthcare": "hospital", "name": "Lenox Health Greenwich Village", "opening_hours": "24/7", "operator": "Northwell Health", "operator:wikidata": "Q7056650", "operator:wikipedia": "en:Northwell Health", "phone": "+1 646 665 6000", "website": "https://www.northwell.edu/lenox-health-greenwich-village"}}, {"type": "node", "id": 357620414, "lat": 40.7327496, "lon": -73.9835079}, {"type": "node", "id": 357642719, "lat": 40.7680561, "lon": -73.9252049}, {"type": "node", "id": 357642722, "lat": 40.7292817, "lon": -73.8521418}, {"type": "node", "id": 357642730, "lat": 40.7697091, "lon": -73.9529748, "tags": {"addr:city": "New York", "addr:housenumber": "420", "addr:postcode": "10021", "addr:street": "East 76th Street", "amenity": "hospital", "emergency": "no", "gnis:feature_id": "2420554", "healthcare": "hospital", "healthcare:speciality": "psychiatry", "name": "Gracie Square Hospital", "opening_hours": "24/7", "phone": "+1 212 434 5300", "website": "https://www.nygsh.org/", "wikidata": "Q5591536", "wikipedia": "en:Gracie Square Hospital"}}, {"type": "node", "id": 357642735, "lat": 40.7620381, "lon": -73.9553606, "tags": {"access": "private", "addr:city": "New York", "addr:housenumber": "1230", "addr:postcode": "10021", "addr:street": "York Avenue", "amenity": "hospital", "beds": "40", "emergency": "no", "gnis:feature_id": "2420556", "healthcare": "hospital", "name": "Rockefeller University Hospital", "note": "Specialty research hospital.", "phone": "+1 212 327 7511", "website": "https://rucares.org/", "wikidata": "Q30265216"}}, {"type": "node", "id": 357642745, "lat": 40.7318799, "lon": -73.9845807, "tags": {"addr:city": "New York", "addr:housenumber": "310", "addr:postcode": "10003", "addr:street": "East 14th Street", "amenity": "hospital", "emergency": "no", "gnis:feature_id": "2420559", "healthcare": "hospital", "healthcare:speciality": "ophthalmology;otolaryngology", "name": "New York Eye and Ear Infirmary of Mount Sinai", "operator": "Mount Sinai", "phone": "+1 212 979 4000", "short_name": "NYEE", "website": "http://www.nyee.edu/", "wikidata": "Q7013496", "wikipedia": "en:New York Eye and Ear Infirmary"}}, {"type": "node", "id": 357642750, "lat": 40.764233, "lon": -73.963647, "tags": {"addr:city": "New York", "addr:housenumber": "210", "addr:postcode": "10065", "addr:street": "East 64th Street", "amenity": "hospital", "emergency": "no", "gnis:feature_id": "2420561", "healthcare": "hospital", "healthcare:speciality": "ophthalmology", "name": "Manhattan Eye Ear and Throat Hospital", "operator": "Northwell Health", "operator:wikidata": "Q7056650", "operator:wikipedia": "en:Northwell Health", "phone": "+1 212 838 9200", "short_name": "MEETH", "website": "https://www.northwell.edu/find-care/locations/manhattan-eye-ear-and-throat-hospital", "wikidata": "Q6749254"}}, {"type": "node", "id": 357652216, "lat": 40.7536455, "lon": -73.8605021, "tags": {"addr:city": "Flushing", "addr:housenumber": "3702", "addr:postcode": "11368", "addr:state": "NY", "addr:street": "108th Street", "amenity": "hospital", "healthcare": "hospital", "healthcare:speciality": "paediatrics;clinic", "name": "Plaza del Sol Family Health Center"}}, {"type": "node", "id": 357719779, "lat": 40.7346982, "lon": -74.048764}, {"type": "node", "id": 357745327, "lat": 40.6690362, "lon": -74.1137857}, {"type": "node", "id": 367683164, "lat": 40.6686541, "lon": -74.1171496, "tags": {"addr:state": "NJ", "amenity": "fire_station", "ele": "12", "gnis:feature_id": "2061668", "name": "Bayonne Hazardous Materials Company 1", "source": "USGS Geonames"}}, {"type": "node", "id": 367684152, "lat": 40.5739934, "lon": -74.2204225, "tags": {"addr:state": "NJ", "amenity": "fire_station", "ele": "6", "gnis:feature_id": "2042174", "name": "Carteret Fire Station Number 2", "source": "USGS Geonames"}}, {"type": "node", "id": 367684162, "lat": 40.5831599, "lon": -74.2170892, "tags": {"addr:state": "NJ", "amenity": "fire_station", "ele": "10", "gnis:feature_id": "2042173", "name": "Carteret Fire Station Number 1", "source": "USGS Geonames"}}, {"type": "node", "id": 367684856, "lat": 40.6686961, "lon": -74.1171127, "tags": {"addr:state": "NJ", "amenity": "fire_station", "ele": "12", "gnis:feature_id": "2061664", "name": "Bayonne Engine Company 3", "source": "USGS Geonames"}}, {"type": "node", "id": 367684869, "lat": 40.649736, "lon": -74.1316938, "tags": {"addr:state": "NJ", "amenity": "fire_station", "ele": "8", "gnis:feature_id": "2061663", "name": "Bayonne Engine Company 2", "source": "USGS Geonames"}}, {"type": "node", "id": 367684905, "lat": 40.6891788, "lon": -74.1038605, "tags": {"addr:state": "NJ", "amenity": "fire_station", "ele": "10", "gnis:feature_id": "2061669", "name": "Bayonne Ladder Company 3", "source": "USGS Geonames"}}, {"type": "node", "id": 367684915, "lat": 40.6892103, "lon": -74.1038364, "tags": {"addr:state": "NJ", "amenity": "fire_station", "ele": "10", "gnis:feature_id": "2061667", "name": "Bayonne Engine Company 6", "source": "USGS Geonames"}}, {"type": "node", "id": 367684920, "lat": 40.6741378, "lon": -74.1108684, "tags": {"addr:state": "NJ", "amenity": "fire_station", "ele": "9", "fixme": "Imagery indicates this is in the wrong location.", "gnis:feature_id": "2061666", "name": "Bayonne Engine Company 5", "source": "USGS Geonames"}}, {"type": "node", "id": 367684974, "lat": 40.6687381, "lon": -74.1171045, "tags": {"addr:state": "NJ", "amenity": "fire_station", "ele": "12", "gnis:feature_id": "2061671", "name": "Bayonne Tower Ladder Company 2", "source": "USGS Geonames"}}, {"type": "node", "id": 367684986, "lat": 40.6497288, "lon": -74.1316617, "tags": {"addr:state": "NJ", "amenity": "fire_station", "ele": "8", "gnis:feature_id": "2061670", "name": "Bayonne Tower Ladder Company 1", "source": "USGS Geonames"}}, {"type": "node", "id": 367685099, "lat": 40.7381462, "lon": -74.0385841, "tags": {"addr:state": "NJ", "amenity": "fire_station", "ele": "1", "gnis:feature_id": "2059162", "name": "Hoboken Ladder Company Number 2", "source": "USGS Geonames"}}, {"type": "node", "id": 367685151, "lat": 40.7381025, "lon": -74.0385961, "tags": {"addr:state": "NJ", "amenity": "fire_station", "ele": "1", "gnis:feature_id": "2059163", "name": "Hoboken Engine Company Number 1", "source": "USGS Geonames"}}, {"type": "node", "id": 367685163, "lat": 40.7527622, "lon": -74.0259534, "tags": {"addr:state": "NJ", "amenity": "fire_station", "ele": "3", "gnis:county_name": "Hudson", "gnis:feature_id": "2059164;2059165", "gnis:import_uuid": "57871b70-0100-4405-bb30-88b2e001a944", "gnis:reviewed": "no", "name": "Hoboken Ladder Company Number 1;Hoboken Engine Company Number 3", "source": "USGS Geonames"}}, {"type": "node", "id": 368046347, "lat": 40.8697451, "lon": -73.8311338, "tags": {"addr:state": "NY", "amenity": "fire_station", "ele": "5", "gnis:feature_id": "2072851", "name": "New York Engine Company 66", "source": "USGS Geonames"}}, {"type": "node", "id": 368046364, "lat": 40.8920865, "lon": -73.90772, "tags": {"addr:state": "NY", "amenity": "fire_station", "ele": "53", "gnis:feature_id": "2072824", "name": "New York Engine Company 52", "source": "USGS Geonames"}}, {"type": "node", "id": 368046370, "lat": 40.8450243, "lon": -73.8464533, "tags": {"addr:state": "NY", "amenity": "fire_station", "ele": "14", "gnis:feature_id": "2072825", "name": "FDNY Squad 61;FDNY Battalion 20", "operator": "New York City Fire Department", "operator:wikidata": "Q283207", "source": "USGS Geonames"}}, {"type": "node", "id": 368046582, "lat": 40.8059026, "lon": -73.9157465, "tags": {"addr:state": "NY", "amenity": "fire_station", "ele": "15", "gnis:feature_id": "2062170", "name": "New York Hook and Ladder Company Number 29", "source": "USGS Geonames"}}, {"type": "node", "id": 368046597, "lat": 40.8059304, "lon": -73.9158102, "tags": {"addr:state": "NY", "amenity": "fire_station", "ele": "15", "gnis:feature_id": "2062168", "name": "New York Engine Company Number 83", "source": "USGS Geonames"}}, {"type": "node", "id": 368046661, "lat": 40.6250837, "lon": -74.0777218, "tags": {"addr:city": "Staten Island", "addr:housenumber": "74", "addr:postcode": "10304", "addr:state": "NY", "addr:street": "Broad Street", "amenity": "fire_station", "ele": "11", "gnis:feature_id": "2079236", "name": "New York Ladder Company 77 & Engine Company 153", "operator": "New York City Fire Department", "operator:wikidata": "Q283207", "operator:wikipedia": "en:New York City Fire Department", "source": "USGS Geonames", "website": "http://www.fdnytrucks.com/files/html/statenisland/e153.htm"}}, {"type": "node", "id": 368046667, "lat": 40.6376656, "lon": -74.0877462, "tags": {"addr:state": "NY", "amenity": "fire_station", "ele": "35", "gnis:feature_id": "2079237", "name": "New York Ladder Company 78", "source": "USGS Geonames"}}, {"type": "node", "id": 368046677, "lat": 40.6364308, "lon": -74.1353035, "tags": {"addr:state": "NY", "amenity": "fire_station", "ele": "10", "gnis:feature_id": "2079241", "name": "New York Ladder Company 80", "source": "USGS Geonames"}}, {"type": "node", "id": 368046682, "lat": 40.5430556, "lon": -74.1475, "tags": {"addr:state": "NY", "amenity": "fire_station", "ele": "13", "gnis:feature_id": "2079242", "name": "New York Ladder Company 82", "source": "USGS Geonames"}}, {"type": "node", "id": 368046689, "lat": 40.6152859, "lon": -74.1308333, "tags": {"addr:state": "NY", "amenity": "fire_station", "ele": "36", "gnis:feature_id": "2079244", "name": "New York Ladder Company 83", "source": "USGS Geonames"}}, {"type": "node", "id": 368046694, "lat": 40.5759767, "lon": -74.1238043, "tags": {"addr:state": "NY", "amenity": "fire_station", "ele": "23", "gnis:feature_id": "2079245", "name": "New York Ladder Company 85", "source": "USGS Geonames"}}, {"type": "node", "id": 368046699, "lat": 40.5760027, "lon": -74.1238408, "tags": {"addr:state": "NY", "amenity": "fire_station", "ele": "23", "gnis:feature_id": "2079223", "name": "New York Engine Company 165", "source": "USGS Geonames"}}, {"type": "node", "id": 368046705, "lat": 40.6142493, "lon": -74.1579974, "tags": {"addr:state": "NY", "amenity": "fire_station", "ele": "12", "gnis:feature_id": "2079224", "name": "New York Engine Company 166", "source": "USGS Geonames"}}, {"type": "node", "id": 368046709, "lat": 40.6142153, "lon": -74.1580196, "tags": {"addr:state": "NY", "amenity": "fire_station", "ele": "12", "gnis:feature_id": "2079225", "name": "New York Ladder Company 86", "source": "USGS Geonames"}}, {"type": "node", "id": 368046714, "lat": 40.5541406, "lon": -74.1753336}, {"type": "node", "id": 368046728, "lat": 40.6113751, "lon": -74.0705521, "tags": {"addr:state": "NY", "amenity": "fire_station", "ele": "22", "gnis:feature_id": "2079233", "name": "New York Foam Company 83", "source": "USGS Geonames"}}, {"type": "node", "id": 368046735, "lat": 40.6073466, "lon": -74.0891808, "tags": {"addr:state": "NY", "amenity": "fire_station", "ele": "27", "gnis:feature_id": "2079216", "name": "New York Rescue Company 5", "source": "USGS Geonames"}}, {"type": "node", "id": 368046739, "lat": 40.6073413, "lon": -74.0891739, "tags": {"addr:state": "NY", "amenity": "fire_station", "ele": "27", "gnis:feature_id": "2079215", "name": "New York Engine Company 160", "source": "USGS Geonames"}}, {"type": "node", "id": 368046743, "lat": 40.6152325, "lon": -74.1308175, "tags": {"addr:state": "NY", "amenity": "fire_station", "ele": "36", "gnis:feature_id": "2079218", "name": "New York Engine Company 163", "source": "USGS Geonames"}}, {"type": "node", "id": 368046748, "lat": 40.5430607, "lon": -74.1474539, "tags": {"addr:state": "NY", "amenity": "fire_station", "ele": "13", "gnis:feature_id": "2079217", "name": "New York Engine Company 162", "source": "USGS Geonames"}}, {"type": "node", "id": 368046754, "lat": 40.5967938, "lon": -74.069868, "tags": {"addr:state": "NY", "amenity": "fire_station", "ele": "19", "gnis:feature_id": "2079220", "name": "New York Ladder Company 81", "source": "USGS Geonames"}}, {"type": "node", "id": 368046758, "lat": 40.5967889, "lon": -74.069918, "tags": {"addr:state": "NY", "amenity": "fire_station", "ele": "19", "gnis:feature_id": "2079219", "name": "New York Engine Company 161", "source": "USGS Geonames"}}, {"type": "node", "id": 368046762, "lat": 40.5355257, "lon": -74.1961041, "tags": {"addr:state": "NY", "amenity": "fire_station", "ele": "29", "gnis:feature_id": "2079222", "name": "New York Ladder Company 84", "source": "USGS Geonames"}}, {"type": "node", "id": 368046766, "lat": 40.5355556, "lon": -74.1961111, "tags": {"addr:state": "NY", "amenity": "fire_station", "ele": "29", "gnis:feature_id": "2079221", "name": "New York Engine Company 164", "source": "USGS Geonames"}}, {"type": "node", "id": 368046773, "lat": 40.6115741, "lon": -74.0702666}, {"type": "node", "id": 368046778, "lat": 40.6376521, "lon": -74.0877872, "tags": {"addr:state": "NY", "amenity": "fire_station", "ele": "35", "gnis:feature_id": "2079210", "name": "New York Engine Company 155", "source": "USGS Geonames"}}, {"type": "node", "id": 368046783, "lat": 40.597883, "lon": -74.1803484}, {"type": "node", "id": 368046786, "lat": 40.6364351, "lon": -74.1353026, "tags": {"addr:state": "NY", "amenity": "fire_station", "ele": "10", "gnis:feature_id": "2079212", "name": "New York Engine Company 157", "source": "USGS Geonames"}}, {"type": "node", "id": 368046789, "lat": 40.6327778, "lon": -74.1172222, "tags": {"addr:state": "NY", "amenity": "fire_station", "ele": "20", "gnis:feature_id": "2079211", "name": "New York Engine Company 156", "source": "USGS Geonames"}}, {"type": "node", "id": 368046793, "lat": 40.5905844, "lon": -74.1005778, "tags": {"addr:state": "NY", "amenity": "fire_station", "ele": "18", "gnis:feature_id": "2079214", "name": "New York Engine Company 159", "source": "USGS Geonames"}}, {"type": "node", "id": 368046816, "lat": 40.8779774, "lon": -73.8466229, "tags": {"addr:state": "NY", "amenity": "fire_station", "ele": "46", "gnis:feature_id": "2076309", "name": "New York Ladder Company 51", "source": "USGS Geonames"}}, {"type": "node", "id": 368046827, "lat": 40.8779518, "lon": -73.8466065, "tags": {"addr:state": "NY", "amenity": "fire_station", "ele": "46", "gnis:feature_id": "2076308", "name": "New York Engine Company 38", "source": "USGS Geonames"}}, {"type": "node", "id": 368046838, "lat": 40.892132, "lon": -73.9077209, "tags": {"addr:state": "NY", "amenity": "fire_station", "ele": "53", "gnis:feature_id": "2073195", "name": "New York Ladder Company 52", "source": "USGS Geonames"}}, {"type": "node", "id": 368046842, "lat": 40.8454482, "lon": -73.7846084, "tags": {"addr:city": "Bronx", "addr:housenumber": "169", "addr:postcode": "10464", "addr:state": "NY", "addr:street": "Schofield Street", "amenity": "fire_station", "ele": "6", "gnis:feature_id": "2073196", "name": "New York Ladder Company 53", "operator": "FDNY", "source": "USGS Geonames"}}, {"type": "node", "id": 368046851, "lat": 40.8697587, "lon": -73.8310084, "tags": {"addr:state": "NY", "amenity": "fire_station", "ele": "5", "gnis:feature_id": "2073203", "name": "New York Ladder Company 61", "source": "USGS Geonames"}}, {"type": "node", "id": 368046887, "lat": 40.8439453, "lon": -73.9000626, "tags": {"addr:city": "New York", "addr:housenumber": "460", "addr:postcode": "10457", "addr:state": "NY", "addr:street": "Cross Bronx Expressway", "amenity": "fire_station", "ele": "12", "gnis:feature_id": "2073181;2072821", "name": "FDNY Engine 46/Ladder 27 Cross Bronx Express", "operator": "New York City Fire Department", "operator:wikidata": "Q283207", "operator:wikipedia": "en:New York City Fire Department"}}, {"type": "node", "id": 368046924, "lat": 40.6930893, "lon": -73.755562, "tags": {"addr:state": "NY", "amenity": "fire_station", "ele": "14", "gnis:feature_id": "2080048", "name": "New York Ladder Company 165", "source": "USGS Geonames"}}, {"type": "node", "id": 368046927, "lat": 40.7633709, "lon": -73.7868829, "tags": {"addr:state": "NY", "amenity": "fire_station", "ele": "21", "gnis:feature_id": "2080050", "name": "FDNY E320 L167", "operator": "New York City Fire Department", "operator:wikidata": "Q283207", "operator:wikipedia": "en:New York City Fire Department", "source": "USGS Geonames"}}, {"type": "node", "id": 368046931, "lat": 40.6640542, "lon": -73.7406769, "tags": {"addr:state": "NY", "amenity": "fire_station", "ele": "5", "gnis:feature_id": "2080171", "name": "FDNY E314", "source": "USGS Geonames"}}, {"type": "node", "id": 368046941, "lat": 40.6739887, "lon": -73.7950495, "tags": {"addr:state": "NY", "amenity": "fire_station", "ele": "5", "gnis:feature_id": "2080039", "name": "FDNY E302 L155", "operator": "New York City Fire Department", "operator:wikidata": "Q283207", "source": "USGS Geonames"}}, {"type": "node", "id": 368046946, "lat": 40.7169221, "lon": -73.7359804, "tags": {"addr:state": "NY", "amenity": "fire_station", "ele": "24", "gnis:feature_id": "2080041", "name": "FDNY E304", "operator": "New York City Fire Department", "operator:wikidata": "Q283207", "operator:wikipedia": "en:New York City Fire Department", "source": "USGS Geonames"}}, {"type": "node", "id": 368046963, "lat": 40.7889336, "lon": -73.8161424, "tags": {"addr:state": "NY", "amenity": "fire_station", "ele": "18", "gnis:feature_id": "2080031", "name": "New York Ladder Company 144", "source": "USGS Geonames"}}, {"type": "node", "id": 368046969, "lat": 40.7183105, "lon": -73.8376859, "tags": {"addr:state": "NY", "amenity": "fire_station", "ele": "24", "gnis:feature_id": "2080033", "name": "FDNY E 305 L151", "operator": "New York City Fire Department", "operator:wikidata": "Q283207", "operator:wikipedia": "en:New York City Fire Department", "source": "USGS Geonames"}}, {"type": "node", "id": 368046978, "lat": 40.7556988, "lon": -73.8855448, "tags": {"addr:state": "NY", "amenity": "fire_station", "ele": "23", "gnis:feature_id": "2080037", "name": "FDNY L154", "operator": "New York City Fire Department", "operator:wikidata": "Q283207", "operator:wikipedia": "en:New York City Fire Department", "source": "USGS Geonames"}}, {"type": "node", "id": 368046980, "lat": 40.7462419, "lon": -73.8653387, "tags": {"addr:state": "NY", "amenity": "fire_station", "ele": "15", "gnis:feature_id": "2080024", "name": "FDNY E289 L138", "operator": "New York City Fire Department", "operator:wikidata": "Q283207", "source": "USGS Geonames"}}, {"type": "node", "id": 368046984, "lat": 40.7130488, "lon": -73.9066631, "tags": {"addr:state": "NY", "amenity": "fire_station", "ele": "31", "gnis:feature_id": "2080026", "name": "FDNY E291", "operator": "New York City Fire Department", "operator:wikidata": "Q283207", "operator:wikipedia": "en:New York City Fire Department", "source": "USGS Geonames"}}, {"type": "node", "id": 368046987, "lat": 40.6825433, "lon": -73.842021, "tags": {"addr:state": "NY", "amenity": "fire_station", "ele": "10", "gnis:feature_id": "2080028", "name": "New York Ladder Company 142", "operator": "New York City Fire Department", "operator:wikidata": "Q283207", "operator:wikipedia": "en:New York City Fire Department", "source": "USGS Geonames"}}, {"type": "node", "id": 368046990, "lat": 40.6949258, "lon": -73.8463192, "tags": {"addr:state": "NY", "amenity": "fire_station", "ele": "15", "gnis:feature_id": "2080030", "name": "New York Ladder Company 143", "operator": "New York City Fire Department", "operator:wikidata": "Q283207", "operator:wikipedia": "en:New York City Fire Department", "source": "USGS Geonames"}}, {"type": "node", "id": 368046993, "lat": 40.7013751, "lon": -73.9623721, "tags": {"addr:state": "NY", "amenity": "fire_station", "ele": "5", "gnis:feature_id": "2081117", "name": "New York Engine Company 211", "source": "USGS Geonames"}}, {"type": "node", "id": 368046996, "lat": 40.6928487, "lon": -73.9729173}, {"type": "node", "id": 368047003, "lat": 40.6841667, "lon": -73.9358333, "tags": {"addr:state": "NY", "amenity": "fire_station", "ele": "18", "gnis:feature_id": "2081119", "name": "New York Engine Company 214", "source": "USGS Geonames"}}, {"type": "node", "id": 368047006, "lat": 40.7152639, "lon": -73.9281853, "tags": {"addr:state": "NY", "amenity": "fire_station", "ele": "1", "gnis:feature_id": "2081113", "name": "New York Engine Company 206", "source": "USGS Geonames"}}, {"type": "node", "id": 368047013, "lat": 40.6956185, "lon": -73.9565358, "tags": {"addr:state": "NY", "amenity": "fire_station", "ele": "10", "gnis:feature_id": "2081115", "name": "New York Engine Company 209", "source": "USGS Geonames"}}, {"type": "node", "id": 368047016, "lat": 40.6957409, "lon": -73.9828371, "tags": {"addr:housenumber": "172", "addr:postcode": "11201", "addr:street": "Tillary Street", "alt_name": "FDNY Brooklyn Borough Command/Division 11/Battalion 31", "amenity": "fire_station", "ele": "7", "gnis:feature_id": "2081114", "name": "FDNY Engine 207/Ladder 110", "operator": "New York City Fire Department", "operator:wikidata": "Q283207"}}, {"type": "node", "id": 368047019, "lat": 40.659132, "lon": -73.8395832}, {"type": "node", "id": 368047022, "lat": 40.6593139, "lon": -73.8396287}, {"type": "node", "id": 368047032, "lat": 40.7471454, "lon": -73.755924, "tags": {"addr:state": "NY", "amenity": "fire_station", "ele": "30", "gnis:feature_id": "2080174", "name": "New York Engine Company 326", "source": "USGS Geonames"}}, {"type": "node", "id": 368047038, "lat": 40.5659129, "lon": -73.8816414}, {"type": "node", "id": 368047041, "lat": 40.7470605, "lon": -73.755884, "tags": {"addr:state": "NY", "amenity": "fire_station", "ele": "30", "gnis:feature_id": "2080175", "name": "FDNY E326 L160", "source": "USGS Geonames"}}, {"type": "node", "id": 368047044, "lat": 40.6777534, "lon": -73.872793, "tags": {"addr:state": "NY", "amenity": "fire_station", "ele": "10", "gnis:feature_id": "2081135", "name": "New York Engine Company 236", "operator": "New York City Fire Department", "operator:wikidata": "Q283207", "source": "USGS Geonames"}}, {"type": "node", "id": 368047046, "lat": 40.7052778, "lon": -73.9319444, "tags": {"addr:state": "NY", "amenity": "fire_station", "ele": "7", "gnis:feature_id": "2081136", "name": "New York Engine Company 237", "source": "USGS Geonames"}}, {"type": "node", "id": 368047049, "lat": 40.6705404, "lon": -73.9335231, "tags": {"addr:city": "Brooklyn", "addr:housenumber": "1352", "addr:postcode": "11213", "addr:state": "NY", "addr:street": "Saint Johns Place", "amenity": "fire_station", "ele": "33", "gnis:feature_id": "2081133", "name": "New York Engine Company 234", "source": "USGS Geonames"}}, {"type": "node", "id": 368047053, "lat": 40.6850379, "lon": -73.9510738}, {"type": "node", "id": 368047061, "lat": 40.6826163, "lon": -73.9114152, "tags": {"addr:state": "NY", "amenity": "fire_station", "ele": "21", "gnis:feature_id": "2081132", "name": "New York Engine Company 233", "source": "USGS Geonames"}}, {"type": "node", "id": 368047064, "lat": 40.7185246, "lon": -73.9489782, "tags": {"addr:state": "NY", "amenity": "fire_station", "ele": "5", "gnis:feature_id": "2081129", "name": "New York Engine Company 229", "source": "USGS Geonames"}}, {"type": "node", "id": 368047067, "lat": 40.6980556, "lon": -73.9475, "tags": {"addr:state": "NY", "amenity": "fire_station", "ele": "7", "gnis:feature_id": "2081130", "name": "New York Engine Company 230", "source": "USGS Geonames"}}, {"type": "node", "id": 368047071, "lat": 40.6747222, "lon": -73.9219444, "tags": {"addr:state": "NY", "amenity": "fire_station", "ele": "30", "gnis:feature_id": "2081127", "name": "New York Engine Company 227", "source": "USGS Geonames"}}, {"type": "node", "id": 368047074, "lat": 40.6519506, "lon": -74.0052202}, {"type": "node", "id": 368047078, "lat": 40.6894457, "lon": -73.9244302, "tags": {"addr:state": "NY", "amenity": "fire_station", "ele": "16", "gnis:feature_id": "2081125", "name": "New York Engine Company 222", "source": "USGS Geonames"}}, {"type": "node", "id": 368047094, "lat": 40.7131355, "lon": -73.9611384, "tags": {"addr:state": "NY", "amenity": "fire_station", "ele": "16", "gnis:feature_id": "2081124", "name": "New York Engine Company 221", "source": "USGS Geonames"}}, {"type": "node", "id": 368047103, "lat": 40.6983948, "lon": -73.9266785, "tags": {"addr:state": "NY", "amenity": "fire_station", "ele": "15", "gnis:feature_id": "2081122", "name": "New York Engine Company 218", "source": "USGS Geonames"}}, {"type": "node", "id": 368047109, "lat": 40.6466667, "lon": -73.9036111, "tags": {"addr:state": "NY", "amenity": "fire_station", "ele": "6", "gnis:feature_id": "2081153", "name": "New York Engine Company 257", "source": "USGS Geonames"}}, {"type": "node", "id": 368047115, "lat": 40.6364025, "lon": -73.9507179}, {"type": "node", "id": 368047117, "lat": 40.5983937, "lon": -73.961948, "tags": {"addr:state": "NY", "amenity": "fire_station", "ele": "5", "gnis:feature_id": "2081151", "name": "New York Engine Company 254", "source": "USGS Geonames"}}, {"type": "node", "id": 368047121, "lat": 40.6885643, "lon": -73.9082173}, {"type": "node", "id": 368047124, "lat": 40.6277277, "lon": -73.9754626}, {"type": "node", "id": 368047127, "lat": 40.6602259, "lon": -73.9533039}, {"type": "node", "id": 368047130, "lat": 40.6486111, "lon": -73.9502778, "tags": {"addr:state": "NY", "amenity": "fire_station", "ele": "14", "gnis:feature_id": "2081147", "name": "New York Engine Company 248", "source": "USGS Geonames"}}, {"type": "node", "id": 368047134, "lat": 40.6280721, "lon": -73.9976784, "tags": {"addr:city": "Brooklyn", "addr:housenumber": "1336", "addr:postcode": "11219", "addr:state": "NY", "addr:street": "60th Street", "amenity": "fire_station", "ele": "15", "gnis:feature_id": "2081145", "name": "New York Engine Company 247", "source": "USGS Geonames"}}, {"type": "node", "id": 368047143, "lat": 40.5767475, "lon": -73.9762497, "tags": {"addr:city": "Brooklyn", "addr:country": "US", "addr:housenumber": "2929", "addr:postcode": "11224", "addr:state": "NY", "addr:street": "West 8th Street", "amenity": "fire_station", "check_date": "2024-04-17", "gnis:feature_id": "2081143;2081265", "name": "New York Engine Company 245;New York Ladder Company 161", "source": "USGS Geonames"}}, {"type": "node", "id": 368047169, "lat": 40.580925, "lon": -73.8380631, "tags": {"addr:state": "NY", "amenity": "fire_station", "ele": "1", "gnis:feature_id": "2079643", "name": "New York Engine Company 268", "operator": "New York City Fire Department", "operator:wikidata": "Q283207", "operator:wikipedia": "en:New York City Fire Department", "source": "USGS Geonames"}}, {"type": "node", "id": 368047173, "lat": 40.7599004, "lon": -73.8264759, "tags": {"addr:city": "Flushing", "addr:postcode": "11354", "addr:state": "NY", "addr:street": "Union Street", "amenity": "fire_station", "ele": "15", "gnis:feature_id": "2079644", "name": "FDNY Engine 273", "operator": "New York City Fire Department", "operator:wikidata": "Q283207", "source": "USGS Geonames"}}, {"type": "node", "id": 368047177, "lat": 40.6935123, "lon": -73.7809193, "tags": {"addr:state": "NY", "amenity": "fire_station", "ele": "7", "gnis:feature_id": "2079645", "name": "FDNY E275 L133", "operator": "New York City Fire Department", "operator:wikidata": "Q283207", "source": "USGS Geonames"}}, {"type": "node", "id": 368047180, "lat": 40.6824954, "lon": -73.8419943, "tags": {"addr:state": "NY", "amenity": "fire_station", "ele": "10", "gnis:feature_id": "2079646", "name": "FDNY E285 L142", "operator": "New York City Fire Department", "operator:wikidata": "Q283207", "operator:wikipedia": "en:New York City Fire Department", "source": "USGS Geonames"}}, {"type": "node", "id": 368047185, "lat": 40.7013463, "lon": -73.8866338, "tags": {"addr:city": "Glendale", "addr:housenumber": "66-44", "addr:postcode": "11385", "addr:state": "NY", "addr:street": "Myrtle Avenue", "amenity": "fire_station", "ele": "27", "gnis:feature_id": "2079647", "name": "New York Engine Company 286", "source": "USGS Geonames"}}, {"type": "node", "id": 368047194, "lat": 40.7260735, "lon": -73.8963785, "tags": {"addr:state": "NY", "amenity": "fire_station", "ele": "25", "gnis:feature_id": "2079649", "name": "New York Engine Company 288", "source": "USGS Geonames"}}, {"type": "node", "id": 368047198, "lat": 40.7462652, "lon": -73.8652712, "tags": {"addr:state": "NY", "amenity": "fire_station", "ele": "15", "gnis:feature_id": "2079653", "name": "New York Engine Company 289", "source": "USGS Geonames"}}, {"type": "node", "id": 368047202, "lat": 40.6537692, "lon": -73.8284033, "tags": {"addr:housenumber": "102-33", "addr:state": "NY", "addr:street": "Davenport Court", "amenity": "fire_station", "ele": "1", "gnis:feature_id": "2079632", "name": "West Hamilton Beach Fire Department", "source": "USGS Geonames"}}, {"type": "node", "id": 368047214, "lat": 40.7363534, "lon": -73.9332002, "tags": {"addr:state": "NY", "amenity": "fire_station", "ele": "13", "gnis:feature_id": "2079636", "name": "FDNY E259 L128", "operator": "New York City Fire Department", "operator:wikidata": "Q283207", "operator:wikipedia": "en:New York City Fire Department", "source": "USGS Geonames"}}, {"type": "node", "id": 368047219, "lat": 40.759812, "lon": -73.9399729, "tags": {"addr:state": "NY", "amenity": "fire_station", "ele": "4", "gnis:feature_id": "2079637", "name": "FDNY E260", "operator": "New York City Fire Department", "operator:wikidata": "Q283207", "operator:wikipedia": "en:New York City Fire Department", "source": "USGS Geonames"}}, {"type": "node", "id": 368047222, "lat": 40.7683348, "lon": -73.9089688, "tags": {"addr:state": "NY", "amenity": "fire_station", "ele": "19", "gnis:feature_id": "2079639;2080007", "name": "New York Ladder Company 117", "source": "USGS Geonames"}}, {"type": "node", "id": 368047232, "lat": 40.5862575, "lon": -73.8162431, "tags": {"addr:state": "NY", "addr:street": "Rockaway Beach Boulevard", "amenity": "fire_station", "ele": "2", "gnis:feature_id": "2079642", "name": "FDNY E266", "operator": "New York City Fire Department", "operator:wikidata": "Q283207", "operator:wikipedia": "en:New York City Fire Department", "source": "USGS Geonames"}}, {"type": "node", "id": 368047236, "lat": 40.6739909, "lon": -73.7950112, "tags": {"addr:state": "NY", "amenity": "fire_station", "ele": "5", "gnis:feature_id": "2079670", "name": "New York Engine Company 302", "source": "USGS Geonames"}}, {"type": "node", "id": 368047244, "lat": 40.6850165, "lon": -73.8503504, "tags": {"addr:state": "NY", "amenity": "fire_station", "ele": "9", "gnis:feature_id": "2079668", "name": "New York Ladder Company 150", "source": "USGS Geonames"}}, {"type": "node", "id": 368047248, "lat": 40.7182879, "lon": -73.8376349, "tags": {"addr:state": "NY", "amenity": "fire_station", "ele": "24", "gnis:feature_id": "2079673", "name": "FDNY E305 L151", "operator": "New York City Fire Department", "operator:wikidata": "Q283207", "operator:wikipedia": "en:New York City Fire Department", "source": "USGS Geonames"}}, {"type": "node", "id": 368047253, "lat": 40.7168013, "lon": -73.7359805, "tags": {"addr:state": "NY", "amenity": "fire_station", "ele": "24", "gnis:feature_id": "2079672", "name": "FDNY L162", "operator": "New York City Fire Department", "operator:wikidata": "Q283207", "operator:wikipedia": "en:New York City Fire Department", "source": "USGS Geonames"}}, {"type": "node", "id": 368047260, "lat": 40.7556875, "lon": -73.8856575, "tags": {"addr:state": "NY", "amenity": "fire_station", "ele": "23", "gnis:feature_id": "2079677", "name": "FDNY E307", "operator": "New York City Fire Department", "operator:wikidata": "Q283207", "operator:wikipedia": "en:New York City Fire Department", "source": "USGS Geonames"}}, {"type": "node", "id": 368047266, "lat": 40.7638889, "lon": -73.7697222, "tags": {"addr:state": "NY", "amenity": "fire_station", "ele": "26", "gnis:feature_id": "2079675", "name": "FDNY E306", "operator": "New York City Fire Department", "operator:wikidata": "Q283207", "source": "USGS Geonames"}}, {"type": "node", "id": 368047276, "lat": 40.6839166, "lon": -73.8232756, "tags": {"addr:state": "NY", "amenity": "fire_station", "ele": "12", "gnis:feature_id": "2079679", "name": "FDNY E308", "operator": "New York City Fire Department", "operator:wikidata": "Q283207", "source": "USGS Geonames"}}, {"type": "node", "id": 368047284, "lat": 40.7130488, "lon": -73.9066497, "tags": {"addr:state": "NY", "amenity": "fire_station", "ele": "31", "gnis:feature_id": "2079655", "name": "FDNY L140", "operator": "New York City Fire Department", "operator:wikidata": "Q283207", "operator:wikipedia": "en:New York City Fire Department", "source": "USGS Geonames"}}, {"type": "node", "id": 368047289, "lat": 40.7889438, "lon": -73.8161019, "tags": {"addr:state": "NY", "amenity": "fire_station", "ele": "18", "gnis:feature_id": "2079660", "name": "FDNY E295 L144", "operator": "New York City Fire Department", "operator:wikidata": "Q283207", "operator:wikipedia": "en:New York City Fire Department", "source": "USGS Geonames"}}, {"type": "node", "id": 368047293, "lat": 40.6949402, "lon": -73.8462527, "tags": {"addr:state": "NY", "amenity": "fire_station", "ele": "15", "gnis:feature_id": "2079659", "name": "FDNY Engine 294", "operator": "New York City Fire Department", "operator:wikidata": "Q283207", "operator:wikipedia": "en:New York City Fire Department", "source": "USGS Geonames"}}, {"type": "node", "id": 368047307, "lat": 40.6850975, "lon": -73.8503845, "tags": {"addr:state": "NY", "amenity": "fire_station", "ele": "9", "gnis:feature_id": "2079667", "name": "New York Engine Company 301", "source": "USGS Geonames"}}, {"type": "node", "id": 368047317, "lat": 40.6047637, "lon": -73.7522066, "tags": {"addr:city": "Far Rockaway", "addr:housenumber": "16-17", "addr:postcode": "11691", "addr:state": "NY", "addr:street": "Central Avenue", "amenity": "fire_station", "ele": "8", "gnis:feature_id": "2079779", "name": "FDNY E264/E328/L134", "operator": "New York City Fire Department", "operator:wikidata": "Q283207", "operator:wikipedia": "en:New York City Fire Department", "source": "USGS Geonames"}}, {"type": "node", "id": 368047326, "lat": 40.7625178, "lon": -73.8127885, "tags": {"addr:state": "NY", "amenity": "fire_station", "ele": "22", "gnis:feature_id": "2079786", "name": "FDNY E274", "source": "USGS Geonames"}}, {"type": "node", "id": 368047329, "lat": 40.7407647, "lon": -73.9009118, "tags": {"addr:state": "NY", "amenity": "fire_station", "ele": "13", "gnis:feature_id": "2079788", "name": "FDNY E292 Rescue 4", "operator": "New York City Fire Department", "operator:wikidata": "Q283207", "operator:wikipedia": "en:New York City Fire Department", "source": "USGS Geonames"}}, {"type": "node", "id": 368047333, "lat": 40.6952757, "lon": -73.8259514, "tags": {"addr:state": "NY", "amenity": "fire_station", "ele": "17", "gnis:feature_id": "2079781", "name": "New York Engine Company 270", "source": "USGS Geonames"}}, {"type": "node", "id": 368047336, "lat": 40.759877, "lon": -73.8264497, "tags": {"addr:city": "Flushing", "addr:postcode": "11354", "addr:state": "NY", "addr:street": "Union Street", "amenity": "fire_station", "ele": "15", "gnis:feature_id": "2079784", "name": "New York Ladder Company 129", "operator": "New York City Fire Department", "operator:wikidata": "Q283207", "source": "USGS Geonames"}}, {"type": "node", "id": 368047339, "lat": 40.6931326, "lon": -73.7555492, "tags": {"addr:state": "NY", "amenity": "fire_station", "ele": "14", "gnis:feature_id": "2079687", "name": "FDNY E317", "source": "USGS Geonames"}}, {"type": "node", "id": 368047354, "lat": 40.7597222, "lon": -73.94, "tags": {"addr:state": "NY", "amenity": "fire_station", "ele": "4", "gnis:feature_id": "2079695", "name": "New York Foam Company 81", "source": "USGS Geonames"}}, {"type": "node", "id": 368047361, "lat": 40.7378962, "lon": -73.8517561}, {"type": "node", "id": 368047368, "lat": 40.7363716, "lon": -73.9331354, "tags": {"addr:state": "NY", "amenity": "fire_station", "ele": "13", "gnis:feature_id": "2080011", "name": "New York Ladder Company 128", "source": "USGS Geonames"}}, {"type": "node", "id": 368047372, "lat": 40.7074602, "lon": -73.8041964}, {"type": "node", "id": 368047379, "lat": 40.58087, "lon": -73.8380357, "tags": {"addr:state": "NY", "amenity": "fire_station", "ele": "1", "gnis:feature_id": "2080022", "name": "FDNY E268 L137", "operator": "New York City Fire Department", "operator:wikidata": "Q283207", "operator:wikipedia": "en:New York City Fire Department", "source": "USGS Geonames"}}, {"type": "node", "id": 368047385, "lat": 40.701344, "lon": -73.8866871, "tags": {"addr:state": "NY", "amenity": "fire_station", "ele": "27", "gnis:feature_id": "2080019", "name": "New York Ladder Company 135", "source": "USGS Geonames"}}, {"type": "node", "id": 368047389, "lat": 40.6935085, "lon": -73.7809508, "tags": {"addr:state": "NY", "amenity": "fire_station", "ele": "7", "gnis:feature_id": "2080017", "name": "New York Ladder Company 133", "source": "USGS Geonames"}}, {"type": "node", "id": 368047392, "lat": 40.6635659, "lon": -73.7597178, "tags": {"addr:state": "NY", "amenity": "fire_station", "ele": "3", "gnis:feature_id": "2079796", "name": "FDNY E311", "source": "USGS Geonames"}}, {"type": "node", "id": 368047395, "lat": 40.6936521, "lon": -73.8068068, "tags": {"addr:state": "NY", "amenity": "fire_station", "ele": "12", "gnis:feature_id": "2079794", "name": "FDNY L126", "operator": "New York City Fire Department", "operator:wikidata": "Q283207", "operator:wikipedia": "en:New York City Fire Department", "source": "USGS Geonames"}}, {"type": "node", "id": 368047399, "lat": 40.6936282, "lon": -73.8067729, "tags": {"addr:state": "NY", "amenity": "fire_station", "ele": "12", "gnis:feature_id": "2079792", "name": "FDNY E303", "operator": "New York City Fire Department", "operator:wikidata": "Q283207", "operator:wikipedia": "en:New York City Fire Department", "source": "USGS Geonames"}}, {"type": "node", "id": 368047414, "lat": 40.6635334, "lon": -73.7597393, "tags": {"addr:state": "NY", "amenity": "fire_station", "ele": "3", "gnis:feature_id": "2079798", "name": "FDNY L158", "source": "USGS Geonames"}}, {"type": "node", "id": 368047434, "lat": 40.7036231, "lon": -74.0075414, "tags": {"addr:city": "New York", "addr:housenumber": "42", "addr:state": "NY", "addr:street": "South Street", "amenity": "fire_station", "ele": "1", "gnis:feature_id": "2084038", "name": "FDNY Engine 4/Ladder 15", "operator": "New York City Fire Department", "operator:wikidata": "Q283207", "operator:wikipedia": "en:New York City Fire Department"}}, {"type": "node", "id": 368047441, "lat": 40.7568252, "lon": -73.9709356, "tags": {"addr:city": "New York", "addr:housenumber": "165", "addr:postcode": "10022", "addr:state": "NY", "addr:street": "East 51st Street", "amenity": "fire_station", "check_date": "2024-03-22", "ele": "12", "gnis:feature_id": "2084040", "name": "FDNY Engine 8/Ladder 2/Battalion 8", "operator": "New York City Fire Department", "operator:wikidata": "Q283207", "operator:wikipedia": "en:New York City Fire Department"}}, {"type": "node", "id": 368047477, "lat": 40.7669769, "lon": -73.9636471, "tags": {"addr:city": "New York", "addr:housenumber": "157-159", "addr:postcode": "10065", "addr:state": "NY", "addr:street": "East 67th Street", "amenity": "fire_station", "check_date": "2024-01-16", "ele": "23", "gnis:feature_id": "2084063;2084065", "name": "FDNY Engine 39/Ladder 16", "operator": "New York City Fire Department", "operator:wikidata": "Q283207", "operator:wikipedia": "en:New York City Fire Department"}}, {"type": "node", "id": 368047518, "lat": 40.7745988, "lon": -73.9843129, "tags": {"addr:city": "New York", "addr:housenumber": "131", "addr:postcode": "10023", "addr:state": "NY", "addr:street": "Amsterdam Avenue", "amenity": "fire_station", "check_date": "2024-04-24", "ele": "20", "gnis:feature_id": "2084066;2084068", "name": "FDNY Engine 40/Ladder 35", "operator": "New York City Fire Department", "operator:wikidata": "Q283207", "operator:wikipedia": "en:New York City Fire Department", "polling_station": "no", "smoking": "no"}}, {"type": "node", "id": 368047540, "lat": 40.7888935, "lon": -73.9468848, "tags": {"addr:city": "New York", "addr:housenumber": "1836-1846", "addr:postcode": "10029", "addr:state": "NY", "addr:street": "3rd Avenue", "amenity": "fire_station", "ele": "6", "gnis:feature_id": "2084071;2084126", "name": "FDNY Engine 53/Ladder 43", "operator": "New York City Fire Department", "operator:wikidata": "Q283207", "operator:wikipedia": "en:New York City Fire Department"}}, {"type": "node", "id": 368047667, "lat": 40.7963098, "lon": -73.9671525, "tags": {"addr:city": "New York", "addr:housenumber": "145-151", "addr:postcode": "10025", "addr:state": "NY", "addr:street": "West 100th Street", "amenity": "fire_station", "ele": "29", "gnis:feature_id": "2084117;2084084", "name": "FDNY Engine 76/Ladder 22/Battalion 11", "operator": "New York City Fire Department", "operator:wikidata": "Q283207", "operator:wikipedia": "en:New York City Fire Department"}}, {"type": "node", "id": 368047735, "lat": 40.6093901, "lon": -73.9592092, "tags": {"addr:state": "NY", "amenity": "fire_station", "ele": "7", "gnis:feature_id": "2081155", "name": "New York Engine Company 276", "source": "USGS Geonames"}}, {"type": "node", "id": 368047742, "lat": 40.7036682, "lon": -73.9160259, "tags": {"addr:state": "NY", "amenity": "fire_station", "ele": "17", "gnis:feature_id": "2081154", "name": "New York Engine Company 271", "source": "USGS Geonames"}}, {"type": "node", "id": 368047754, "lat": 40.6964317, "lon": -73.914507, "tags": {"addr:state": "NY", "amenity": "fire_station", "ele": "11", "gnis:feature_id": "2081156", "name": "New York Engine Company 277", "source": "USGS Geonames"}}, {"type": "node", "id": 368047757, "lat": 40.6401159, "lon": -73.9665896}, {"type": "node", "id": 368047769, "lat": 40.640148, "lon": -73.9905538}, {"type": "node", "id": 368047772, "lat": 40.6152611, "lon": -73.9283194, "tags": {"addr:city": "Brooklyn", "addr:housenumber": "1851", "addr:postcode": "11234", "addr:state": "NY", "addr:street": "East 48th Street", "amenity": "fire_station", "ele": "4", "gnis:feature_id": "2081172", "name": "New York Engine Company 309", "operator": "New York City Fire Department", "operator:wikidata": "Q283207", "operator:wikipedia": "en:New York City Fire Department", "source": "USGS Geonames"}}, {"type": "node", "id": 368047777, "lat": 40.6651431, "lon": -73.8953627, "tags": {"addr:state": "NY", "amenity": "fire_station", "ele": "8", "gnis:feature_id": "2081171", "name": "New York Engine Company 290", "source": "USGS Geonames"}}, {"type": "node", "id": 368047786, "lat": 40.6502778, "lon": -73.9288889, "tags": {"addr:state": "NY", "amenity": "fire_station", "ele": "9", "gnis:feature_id": "2081173", "name": "New York Engine Company 310", "source": "USGS Geonames"}}, {"type": "node", "id": 368047794, "lat": 40.6022375, "lon": -73.9353435, "tags": {"addr:city": "Brooklyn", "addr:housenumber": "2165", "addr:postcode": "11229", "addr:state": "NY", "addr:street": "Gerritsen Avenue", "amenity": "fire_station", "ele": "3", "gnis:feature_id": "2081175", "name": "New York Engine Company 321", "operator": "New York City Fire Department", "operator:wikidata": "Q283207", "operator:wikipedia": "en:New York City Fire Department", "source": "USGS Geonames"}}, {"type": "node", "id": 368047799, "lat": 40.6751707, "lon": -73.8926156, "tags": {"addr:state": "NY", "amenity": "fire_station", "ele": "15", "gnis:feature_id": "2081178", "name": "New York Engine Company 332", "source": "USGS Geonames"}}, {"type": "node", "id": 368047804, "lat": 40.6121519, "lon": -73.9791684, "tags": {"addr:city": "Brooklyn", "addr:housenumber": "2312", "addr:postcode": "11204", "addr:state": "NY", "addr:street": "65th Street", "amenity": "fire_station", "ele": "10", "gnis:feature_id": "2081177", "name": "New York Engine Company 330", "operator": "New York City Fire Department", "operator:wikidata": "Q283207", "operator:wikipedia": "en:New York City Fire Department", "source": "USGS Geonames"}}, {"type": "node", "id": 368047809, "lat": 40.7153349, "lon": -73.928253, "tags": {"addr:state": "NY", "amenity": "fire_station", "ele": "1", "gnis:feature_id": "2081179", "name": "New York Foam Company 86", "source": "USGS Geonames"}}, {"type": "node", "id": 368047813, "lat": 40.6022014, "lon": -73.9352973, "tags": {"addr:city": "Brooklyn", "addr:housenumber": "2165", "addr:postcode": "11229", "addr:state": "NY", "addr:street": "Gerritsen Avenue", "amenity": "fire_station", "ele": "3", "gnis:feature_id": "2081180", "name": "New York Fire Company 87", "operator": "New York City Fire Department", "operator:wikidata": "Q283207", "operator:wikipedia": "en:New York City Fire Department", "source": "USGS Geonames"}}, {"type": "node", "id": 368047827, "lat": 40.6955875, "lon": -73.9565287, "tags": {"addr:state": "NY", "amenity": "fire_station", "ele": "10", "gnis:feature_id": "2081183", "name": "New York Ladder Company 102", "source": "USGS Geonames"}}, {"type": "node", "id": 368047834, "lat": 40.6651164, "lon": -73.8955105, "tags": {"addr:state": "NY", "amenity": "fire_station", "ele": "8", "gnis:feature_id": "2081184", "name": "New York Ladder Company 103", "source": "USGS Geonames"}}, {"type": "node", "id": 368047840, "lat": 40.7130823, "lon": -73.9611665, "tags": {"addr:state": "NY", "amenity": "fire_station", "ele": "16", "gnis:feature_id": "2081185", "name": "New York Ladder Company 104", "source": "USGS Geonames"}}, {"type": "node", "id": 368047851, "lat": 40.7296905, "lon": -73.9561731, "tags": {"addr:state": "NY", "amenity": "fire_station", "ele": "8", "gnis:feature_id": "2081187", "name": "New York Ladder Company 106", "source": "USGS Geonames"}}, {"type": "node", "id": 368047875, "lat": 40.6841653, "lon": -73.935837, "tags": {"addr:state": "NY", "amenity": "fire_station", "ele": "18", "gnis:feature_id": "2081192", "name": "New York Ladder Company 111", "source": "USGS Geonames"}}, {"type": "node", "id": 368047880, "lat": 40.6964589, "lon": -73.9145746, "tags": {"addr:state": "NY", "amenity": "fire_station", "ele": "11", "gnis:feature_id": "2081193", "name": "New York Ladder Company 112", "source": "USGS Geonames"}}, {"type": "node", "id": 368047895, "lat": 40.7014015, "lon": -73.962331, "tags": {"addr:state": "NY", "amenity": "fire_station", "ele": "5", "gnis:feature_id": "2081197", "name": "New York Ladder Company 119", "source": "USGS Geonames"}}, {"type": "node", "id": 368047917, "lat": 40.7036282, "lon": -73.9159723, "tags": {"addr:state": "NY", "amenity": "fire_station", "ele": "17", "gnis:feature_id": "2081201", "name": "New York Ladder Company 124", "source": "USGS Geonames"}}, {"type": "node", "id": 368047929, "lat": 40.6401099, "lon": -73.9906334, "tags": {"addr:state": "NY", "amenity": "fire_station", "ele": "20", "gnis:feature_id": "2081259", "name": "New York Ladder Company 148", "source": "USGS Geonames"}}, {"type": "node", "id": 368047932, "lat": 40.6400597, "lon": -73.9667162}, {"type": "node", "id": 368047937, "lat": 40.718519, "lon": -73.9490469, "tags": {"addr:state": "NY", "amenity": "fire_station", "ele": "5", "gnis:feature_id": "2081257", "name": "New York Ladder Company 146", "source": "USGS Geonames"}}, {"type": "node", "id": 368047942, "lat": 40.6152991, "lon": -73.9283229, "tags": {"addr:city": "Brooklyn", "addr:housenumber": "1851", "addr:postcode": "11234", "addr:state": "NY", "addr:street": "East 48th Street", "amenity": "fire_station", "ele": "4", "gnis:feature_id": "2081264", "name": "New York Ladder Company 159", "operator": "New York City Fire Department", "operator:wikidata": "Q283207", "operator:wikipedia": "en:New York City Fire Department", "source": "USGS Geonames"}}, {"type": "node", "id": 368047945, "lat": 40.6364509, "lon": -73.9505275}, {"type": "node", "id": 368047949, "lat": 40.6093574, "lon": -73.9592004, "tags": {"addr:state": "NY", "amenity": "fire_station", "ele": "7", "gnis:feature_id": "2081262", "name": "New York Ladder Company 156", "source": "USGS Geonames"}}, {"type": "node", "id": 368047954, "lat": 40.5984054, "lon": -73.9619732, "tags": {"addr:state": "NY", "amenity": "fire_station", "ele": "5", "gnis:feature_id": "2081261", "name": "New York Ladder Company 153", "source": "USGS Geonames"}}, {"type": "node", "id": 368047957, "lat": 40.6059111, "lon": -74.0033649}, {"type": "node", "id": 368047985, "lat": 40.6752661, "lon": -73.8926173, "tags": {"addr:state": "NY", "amenity": "fire_station", "ele": "15", "gnis:feature_id": "2081272", "name": "New York Ladder Company 175", "source": "USGS Geonames"}}, {"type": "node", "id": 368047993, "lat": 40.6465972, "lon": -73.9036916, "tags": {"addr:state": "NY", "amenity": "fire_station", "ele": "6", "gnis:feature_id": "2081269", "name": "New York Ladder Company 170", "source": "USGS Geonames"}}, {"type": "node", "id": 368047996, "lat": 40.6121306, "lon": -73.9791716, "tags": {"addr:city": "Brooklyn", "addr:housenumber": "2312", "addr:postcode": "11204", "addr:state": "NY", "addr:street": "65th Street", "amenity": "fire_station", "ele": "10", "gnis:feature_id": "2081270", "name": "New York Ladder Company 172", "operator": "New York City Fire Department", "operator:wikidata": "Q283207", "operator:wikipedia": "en:New York City Fire Department", "source": "USGS Geonames"}}, {"type": "node", "id": 368048004, "lat": 40.5989602, "lon": -73.9884891, "tags": {"addr:city": "Brooklyn", "addr:housenumber": "2429", "addr:postcode": "11214", "addr:state": "NY", "addr:street": "86th Street", "amenity": "fire_station", "ele": "4", "gnis:feature_id": "2081380", "name": "New York Engine Company 253", "operator": "New York City Fire Department", "operator:wikidata": "Q283207", "operator:wikipedia": "en:New York City Fire Department", "source": "USGS Geonames"}}, {"type": "node", "id": 368048009, "lat": 40.682657, "lon": -73.9114983, "tags": {"addr:state": "NY", "amenity": "fire_station", "ele": "21", "gnis:feature_id": "2081273", "name": "New York Ladder Company 176", "source": "USGS Geonames"}}, {"type": "node", "id": 368048028, "lat": 40.693032, "lon": -73.9970069}, {"type": "node", "id": 368048033, "lat": 40.6872174, "lon": -73.9826036}, {"type": "node", "id": 368049489, "lat": 40.7240423, "lon": -73.7057253, "tags": {"addr:state": "NY", "amenity": "fire_station", "ele": "28", "gnis:feature_id": "2498357", "name": "Floral Park Fire Department Headquarters", "source": "USGS Geonames"}}, {"type": "node", "id": 368051726, "lat": 40.8561127, "lon": -73.8442958, "tags": {"addr:state": "NY", "amenity": "police", "ele": "9", "gnis:feature_id": "2072373", "name": "49th Precinct", "operator": "New York Police Department", "operator:official": "City of New York Police Department", "operator:short": "NYPD", "operator:wikidata": "Q328473", "source": "USGS Geonames"}}, {"type": "node", "id": 368051733, "lat": 40.8224393, "lon": -73.9113094, "tags": {"addr:state": "NY", "amenity": "police", "ele": "9", "gnis:feature_id": "2072442", "name": "Fortysecond Precinct Police Station", "source": "USGS Geonames"}}, {"type": "node", "id": 368051738, "lat": 40.8875, "lon": -73.8475, "tags": {"addr:state": "NY", "amenity": "police", "ele": "33", "gnis:feature_id": "2072397", "name": "Fortyseventh Precinct Police Station", "source": "USGS Geonames"}}, {"type": "node", "id": 368051742, "lat": 40.8540411, "lon": -73.9001068, "tags": {"addr:city": "Bronx", "addr:housenumber": "2120", "addr:postcode": "10457-2919", "addr:state": "NY", "addr:street": "Ryer Avenue", "amenity": "police", "ele": "31", "gnis:feature_id": "2072485", "name": "NYPD 46 Precinct", "opening_hours": "24/7", "operator": "New York Police Department", "operator:official": "City of New York Police Department", "operator:short": "NYPD", "operator:wikidata": "Q328473", "operator:wikipedia": "en:New York City Police Department", "source": "USGS Geonames", "website": "https://www1.nyc.gov/site/nypd/bureaus/patrol/precincts/46th-precinct.page"}}, {"type": "node", "id": 368051746, "lat": 40.8472222, "lon": -73.8972222, "tags": {"addr:state": "NY", "amenity": "police", "ele": "19", "gnis:feature_id": "2072484", "name": "Fortyeighth Precinct Police Station", "source": "USGS Geonames"}}, {"type": "node", "id": 368051749, "lat": 40.8306949, "lon": -73.8273325}, {"type": "node", "id": 368051753, "lat": 40.8875, "lon": -73.8772222, "tags": {"addr:state": "NY", "amenity": "police", "ele": "50", "gnis:feature_id": "2073259", "name": "Jerome Avenue Gate House and Police Station", "source": "USGS Geonames"}}, {"type": "node", "id": 368051756, "lat": 40.8402778, "lon": -73.9283333, "tags": {"addr:state": "NY", "amenity": "police", "ele": "8", "gnis:feature_id": "2076313", "name": "Fortyfourth Precinct Police Station", "source": "USGS Geonames"}}, {"type": "node", "id": 368051762, "lat": 40.8286111, "lon": -73.9438889, "tags": {"addr:state": "NY", "amenity": "police", "ele": "36", "gnis:feature_id": "2078987", "name": "NYPD 30 PCT", "operator": "New York Police Department", "operator:official": "City of New York Police Department", "operator:short": "NYPD", "operator:wikidata": "Q328473", "operator:wikipedia": "en:New York City Police Department", "source": "USGS Geonames"}}, {"type": "node", "id": 368051766, "lat": 40.7841202, "lon": -73.9750749, "tags": {"addr:state": "NY", "amenity": "police", "ele": "27", "gnis:feature_id": "2076789", "name": "NYPD 20 PCT", "operator": "New York Police Department", "operator:official": "City of New York Police Department", "operator:short": "NYPD", "operator:wikidata": "Q328473", "operator:wikipedia": "en:New York City Police Department", "source": "USGS Geonames"}}, {"type": "node", "id": 368051770, "lat": 40.7831431, "lon": -73.9638928}, {"type": "node", "id": 368051780, "lat": 40.6445729, "lon": -74.0772446}, {"type": "node", "id": 368051819, "lat": 40.7119845, "lon": -74.0022478, "tags": {"addr:city": "New York", "addr:state": "NY", "amenity": "police", "ele": "9", "gnis:feature_id": "2060429", "name": "New York City Police Headquarters", "source": "USGS Geonames", "wheelchair": "yes"}}, {"type": "node", "id": 368051823, "lat": 40.8103299, "lon": -73.925216, "tags": {"addr:city": "Bronx", "addr:housenumber": "257", "addr:postcode": "10454", "addr:state": "NY", "addr:street": "Alexander Avenue", "amenity": "police", "ele": "10", "gnis:feature_id": "2062096", "name": "Fortieth Precinct Police Station", "source": "USGS Geonames"}}, {"type": "node", "id": 368051830, "lat": 40.8167675, "lon": -73.8959695, "tags": {"addr:state": "NY", "amenity": "police", "ele": "9", "gnis:feature_id": "2062183", "name": "Police Athletic League Bronx Community Center", "source": "USGS Geonames"}}, {"type": "node", "id": 368051844, "lat": 40.851292, "lon": -73.935362}, {"type": "node", "id": 368051847, "lat": 40.7267398, "lon": -73.9532901, "tags": {"addr:state": "NY", "amenity": "police", "ele": "5", "gnis:feature_id": "2097590", "name": "Ninety fourth Precinct Police Station", "source": "USGS Geonames"}}, {"type": "node", "id": 368051882, "lat": 40.6953832, "lon": -73.9830771, "tags": {"addr:housenumber": "301", "addr:postcode": "11201", "addr:street": "Gold Street", "amenity": "police", "ele": "7", "gnis:feature_id": "2485811", "name": "NYPD 84th Precinct", "operator": "New York Police Department", "operator:official": "City of New York Police Department", "operator:short": "NYPD", "operator:wikidata": "Q328473", "phone": "+1-718-875-6811", "website": "https://www1.nyc.gov/site/nypd/bureaus/patrol/precincts/84th-precinct.page"}}, {"type": "node", "id": 368051892, "lat": 40.6896844, "lon": -73.9244159, "tags": {"addr:state": "NY", "amenity": "police", "ele": "16", "gnis:feature_id": "2080906", "name": "Eightyfirst Precinct Police Station", "source": "USGS Geonames"}}, {"type": "node", "id": 368051896, "lat": 40.7567144, "lon": -73.8757575}, {"type": "node", "id": 368051916, "lat": 40.7649371, "lon": -73.9850825, "tags": {"addr:state": "NY", "amenity": "police", "ele": "20", "gnis:feature_id": "2083232", "name": "NYPD Midtown North PCT", "operator": "New York Police Department", "operator:official": "City of New York Police Department", "operator:short": "NYPD", "operator:wikidata": "Q328473", "operator:wikipedia": "en:New York City Police Department", "source": "USGS Geonames", "wheelchair": "no"}}, {"type": "node", "id": 368051919, "lat": 40.7670729, "lon": -73.9638697, "tags": {"addr:city": "New York", "addr:postcode": "10065", "addr:state": "NY", "addr:street": "East 67th Street", "amenity": "police", "check_date": "2024-01-16", "ele": "23", "gnis:feature_id": "2083518", "name": "NYPD 19 PCT", "operator": "New York Police Department", "operator:official": "City of New York Police Department", "operator:short": "NYPD", "operator:wikidata": "Q328473", "operator:wikipedia": "en:New York City Police Department"}}, {"type": "node", "id": 368051925, "lat": 40.7538947, "lon": -73.9949396, "tags": {"addr:state": "NY", "amenity": "police", "ele": "12", "gnis:feature_id": "2083172", "name": "Midtown South Precinct Police Station", "source": "USGS Geonames"}}, {"type": "node", "id": 368051939, "lat": 40.707208, "lon": -73.9624756, "tags": {"addr:state": "NY", "amenity": "police", "ele": "15", "gnis:feature_id": "2097531", "name": "Ninetieth Precinct Police Station", "source": "USGS Geonames"}}, {"type": "node", "id": 368051950, "lat": 40.7890749, "lon": -73.9470179, "tags": {"addr:city": "New York", "addr:housenumber": "164", "addr:postcode": "10029-5721", "addr:state": "NY", "addr:street": "East 102nd Street", "amenity": "police", "ele": "6", "facebook": "NYPD23pct", "gnis:feature_id": "2083765", "name": "23rd Precinct Police Station", "opening_hours": "24/7", "operator": "New York Police Department", "operator:official": "City of New York Police Department", "operator:short": "NYPD", "operator:wikidata": "Q328473", "operator:wikipedia": "en:New York City Police Department", "phone": "+1 212-860-6430", "twitter": "NYPD23Pct", "website": "https://www1.nyc.gov/site/nypd/bureaus/patrol/precincts/23rd-precinct.page", "wheelchair": "designated"}}, {"type": "node", "id": 368053706, "lat": 40.8439662, "lon": -73.9002941, "tags": {"addr:state": "NY", "amenity": "police", "gnis:feature_id": "2072483", "name": "Fortyeighth Precinct Station House", "source": "USGS Geonames"}}, {"type": "node", "id": 368055255, "lat": 40.8408534, "lon": -73.9359628}, {"type": "node", "id": 369043743, "lat": 40.7534615, "lon": -73.7112981}, {"type": "node", "id": 389343441, "lat": 40.5827709, "lon": -74.0842748}, {"type": "node", "id": 389343442, "lat": 40.5857237, "lon": -74.081624}, {"type": "node", "id": 389343443, "lat": 40.5877325, "lon": -74.0854732}, {"type": "node", "id": 389343446, "lat": 40.5848911, "lon": -74.0881313}, {"type": "node", "id": 559141899, "lat": 40.7228844, "lon": -73.7241769, "tags": {"amenity": "fire_station", "name": "Bellerose Terrace FD"}}, {"type": "node", "id": 575197303, "lat": 40.6662553, "lon": -73.7345983, "tags": {"addr:city": "Rosedale", "addr:housenumber": "242-20", "addr:postcode": "11422", "addr:state": "NY", "addr:street": "North Conduit Avenue", "amenity": "police", "name": "New York City Police"}}, {"type": "node", "id": 581639600, "lat": 40.822877, "lon": -73.8698072, "tags": {"amenity": "police", "name": "43rd Precinct", "operator": "New York Police Department", "operator:official": "City of New York Police Department", "operator:short": "NYPD", "operator:wikidata": "Q328473"}}, {"type": "node", "id": 763029079, "lat": 40.7333256, "lon": -73.7335588, "tags": {"access": "no", "access:delivery": "no", "barrier": "gate", "locked": "yes", "material": "metal", "motorcar": "no", "motorcycle": "no"}}, {"type": "node", "id": 822341243, "lat": 40.756458, "lon": -73.704337}, {"type": "node", "id": 941846035, "lat": 40.723934, "lon": -73.7062115, "tags": {"amenity": "police", "name": "Floral Park Police Headquarters"}}, {"type": "node", "id": 1102426341, "lat": 40.7573273, "lon": -73.7044674}, {"type": "node", "id": 1102435703, "lat": 40.7524893, "lon": -73.7123248}, {"type": "node", "id": 1102435704, "lat": 40.751965, "lon": -73.7115181}, {"type": "node", "id": 1102435707, "lat": 40.7506048, "lon": -73.7130628}, {"type": "node", "id": 1102435712, "lat": 40.752208, "lon": -73.7080201}, {"type": "node", "id": 1102435715, "lat": 40.7546954, "lon": -73.7051756}, {"type": "node", "id": 1241256395, "lat": 40.7123258, "lon": -74.0020384}, {"type": "node", "id": 1241256422, "lat": 40.7125584, "lon": -74.0018612}, {"type": "node", "id": 1241256439, "lat": 40.712594, "lon": -74.0018317}, {"type": "node", "id": 1241256475, "lat": 40.7124842, "lon": -74.0015941}, {"type": "node", "id": 1241256501, "lat": 40.7118793, "lon": -74.0015969}, {"type": "node", "id": 1258945404, "lat": 40.6912526, "lon": -73.9775311}, {"type": "node", "id": 1258945599, "lat": 40.6912645, "lon": -73.9774}, {"type": "node", "id": 1314439274, "lat": 40.675651, "lon": -73.9629905}, {"type": "node", "id": 1332754441, "lat": 40.6499122, "lon": -73.9711187, "tags": {"amenity": "police"}}, {"type": "node", "id": 1332871210, "lat": 40.8742044, "lon": -73.9138711}, {"type": "node", "id": 1332871281, "lat": 40.8729305, "lon": -73.9137311}, {"type": "node", "id": 1332871340, "lat": 40.8730827, "lon": -73.9138884}, {"type": "node", "id": 1332871342, "lat": 40.8730745, "lon": -73.9137278}, {"type": "node", "id": 1332871345, "lat": 40.8724215, "lon": -73.9130617}, {"type": "node", "id": 1332871406, "lat": 40.8723197, "lon": -73.9129532}, {"type": "node", "id": 1377453882, "lat": 40.8376206, "lon": -73.9195052, "tags": {"amenity": "police", "name": "44th Precinct"}}, {"type": "node", "id": 1426252015, "lat": 40.7564365, "lon": -73.9863784}, {"type": "node", "id": 1505925126, "lat": 40.8399358, "lon": -73.9454363}, {"type": "node", "id": 1505925127, "lat": 40.8447703, "lon": -73.9428771}, {"type": "node", "id": 1505925128, "lat": 40.8451838, "lon": -73.9427284}, {"type": "node", "id": 1505925130, "lat": 40.8394274, "lon": -73.9392852}, {"type": "node", "id": 1505925132, "lat": 40.840812, "lon": -73.9445363}, {"type": "node", "id": 1505925133, "lat": 40.8452588, "lon": -73.943112}, {"type": "node", "id": 1505925135, "lat": 40.8443982, "lon": -73.9429935}, {"type": "node", "id": 1505925136, "lat": 40.8436543, "lon": -73.9436005}, {"type": "node", "id": 1505925137, "lat": 40.8418034, "lon": -73.9452626}, {"type": "node", "id": 1505925140, "lat": 40.8410165, "lon": -73.944405}, {"type": "node", "id": 1505925141, "lat": 40.8404505, "lon": -73.9385647}, {"type": "node", "id": 1505925143, "lat": 40.8412813, "lon": -73.9405198}, {"type": "node", "id": 1505925154, "lat": 40.8434297, "lon": -73.9444392}, {"type": "node", "id": 1505925155, "lat": 40.8401499, "lon": -73.9452603}, {"type": "node", "id": 1505925156, "lat": 40.8397495, "lon": -73.9400529}, {"type": "node", "id": 1505925161, "lat": 40.8428014, "lon": -73.9421751}, {"type": "node", "id": 1505925162, "lat": 40.8391497, "lon": -73.940854}, {"type": "node", "id": 1505925163, "lat": 40.8403196, "lon": -73.9431903}, {"type": "node", "id": 1505925165, "lat": 40.8415177, "lon": -73.944164}, {"type": "node", "id": 1505925166, "lat": 40.8435162, "lon": -73.942896}, {"type": "node", "id": 1505925167, "lat": 40.8446286, "lon": -73.9425691}, {"type": "node", "id": 1505925170, "lat": 40.8436746, "lon": -73.9432527}, {"type": "node", "id": 1505925171, "lat": 40.839402, "lon": -73.9413066}, {"type": "node", "id": 1505925173, "lat": 40.8442729, "lon": -73.942687}, {"type": "node", "id": 1505925175, "lat": 40.8431127, "lon": -73.943037}, {"type": "node", "id": 1505925182, "lat": 40.8419073, "lon": -73.9400673}, {"type": "node", "id": 1505925183, "lat": 40.8391541, "lon": -73.9436156}, {"type": "node", "id": 1505925184, "lat": 40.842078, "lon": -73.942431}, {"type": "node", "id": 1505925185, "lat": 40.8414248, "lon": -73.9408883}, {"type": "node", "id": 1505925187, "lat": 40.8431923, "lon": -73.9442404}, {"type": "node", "id": 1505925190, "lat": 40.8387383, "lon": -73.9400553}, {"type": "node", "id": 1505925192, "lat": 40.8420599, "lon": -73.9404189}, {"type": "node", "id": 1581175993, "lat": 40.7464784, "lon": -73.9717941, "tags": {"addr:city": "New York", "addr:housenumber": "339", "addr:postcode": "10016", "addr:street": "East 38th Street", "amenity": "hospital", "emergency": "no", "entrance": "yes", "healthcare": "hospital", "healthcare:speciality": "surgery", "name": "NYU Langone Outpatient Surgery Center", "operator": "NYU Langone Health", "operator:wikidata": "Q6956114", "operator:wikipedia": "en:NYU Langone Health", "phone": "+1 212 263 1515", "website": "https://nyulangone.org/locations/nyu-langone-outpatient-surgery-center"}}, {"type": "node", "id": 1601623682, "lat": 40.7380343, "lon": -73.9774917}, {"type": "node", "id": 1601623695, "lat": 40.7369451, "lon": -73.9782975}, {"type": "node", "id": 1601623759, "lat": 40.7371952, "lon": -73.9754999}, {"type": "node", "id": 1632878891, "lat": 40.7382884, "lon": -73.9750448}, {"type": "node", "id": 1632878915, "lat": 40.7385143, "lon": -73.9737986}, {"type": "node", "id": 1632897671, "lat": 40.7404642, "lon": -73.973267}, {"type": "node", "id": 1632897675, "lat": 40.7412664, "lon": -73.9743988}, {"type": "node", "id": 1632897684, "lat": 40.7414842, "lon": -73.9749544}, {"type": "node", "id": 1632897686, "lat": 40.7426626, "lon": -73.9726311}, {"type": "node", "id": 1632897687, "lat": 40.7430298, "lon": -73.9724159}, {"type": "node", "id": 1632897688, "lat": 40.7430799, "lon": -73.9723978}, {"type": "node", "id": 1632897689, "lat": 40.743129, "lon": -73.9724069}, {"type": "node", "id": 1632897690, "lat": 40.7431703, "lon": -73.9724328}, {"type": "node", "id": 1632897691, "lat": 40.7431948, "lon": -73.9724665}, {"type": "node", "id": 1632897692, "lat": 40.7436044, "lon": -73.9734453}, {"type": "node", "id": 1696892390, "lat": 40.7266719, "lon": -73.9878328}, {"type": "node", "id": 1751622339, "lat": 40.7607497, "lon": -73.9870173}, {"type": "node", "id": 1751622343, "lat": 40.7607031, "lon": -73.9869108}, {"type": "node", "id": 1751622346, "lat": 40.760622, "lon": -73.9867168}, {"type": "node", "id": 1762793888, "lat": 40.8430748, "lon": -73.9436636}, {"type": "node", "id": 1764402966, "lat": 40.6799224, "lon": -73.7758415, "tags": {"amenity": "police", "name": "NYPD 113 PCT", "operator": "New York Police Department", "operator:official": "City of New York Police Department", "operator:short": "NYPD", "operator:wikidata": "Q328473"}}, {"type": "node", "id": 1788737564, "lat": 40.6079029, "lon": -74.0219046}, {"type": "node", "id": 1788737613, "lat": 40.6095744, "lon": -74.0247608}, {"type": "node", "id": 1799440638, "lat": 40.7623558, "lon": -73.8269924, "tags": {"amenity": "police", "name": "NYPD 109 Precinct", "operator": "New York Police Department", "operator:official": "City of New York Police Department", "operator:short": "NYPD", "operator:wikidata": "Q328473"}}, {"type": "node", "id": 1932858968, "lat": 40.8165136, "lon": -73.9251164}, {"type": "node", "id": 1932858969, "lat": 40.8155453, "lon": -73.9240569}, {"type": "node", "id": 1932858970, "lat": 40.8167815, "lon": -73.9261222}, {"type": "node", "id": 1932858971, "lat": 40.8178667, "lon": -73.9252274}, {"type": "node", "id": 1932858972, "lat": 40.8164401, "lon": -73.9234454}, {"type": "node", "id": 1932858973, "lat": 40.8158839, "lon": -73.9253605}, {"type": "node", "id": 1932858974, "lat": 40.817291, "lon": -73.9229706}, {"type": "node", "id": 1932858975, "lat": 40.8170048, "lon": -73.9231074}, {"type": "node", "id": 1956671408, "lat": 40.854017, "lon": -73.9696978}, {"type": "node", "id": 1956671411, "lat": 40.8538736, "lon": -73.969298}, {"type": "node", "id": 2043282894, "lat": 40.8735305, "lon": -73.9118268}, {"type": "node", "id": 2043282972, "lat": 40.8739717, "lon": -73.9129483}, {"type": "node", "id": 2043282976, "lat": 40.8735051, "lon": -73.9117893}, {"type": "node", "id": 2043283029, "lat": 40.8739417, "lon": -73.9128634}, {"type": "node", "id": 2159537772, "lat": 40.842311, "lon": -73.9691725, "tags": {"amenity": "fire_station", "name": "Edgewater Volunteer Fire Department", "source": "local_knowledge"}}, {"type": "node", "id": 2185003521, "lat": 40.5993281, "lon": -73.9118325, "tags": {"amenity": "police", "name": "New York City Police Department Highway Patrol", "operator": "New York Police Department", "operator:official": "City of New York Police Department", "operator:short": "NYPD", "operator:wikidata": "Q328473", "operator:wikipedia": "en:New York City Police Department"}}, {"type": "node", "id": 2185003541, "lat": 40.5837916, "lon": -73.8845382, "tags": {"amenity": "police", "name": "United States Park Police", "operator": "United States Park Police", "operator:short": "USPP", "operator:wikidata": "Q2005254", "operator:wikipedia": "en:United States Park Police"}}, {"type": "node", "id": 2193680052, "lat": 40.6821864, "lon": -73.8397899, "tags": {"amenity": "police", "name": "NYPD 106 PCT", "operator": "New York Police Department", "operator:official": "City of New York Police Department", "operator:short": "NYPD", "operator:wikidata": "Q328473"}}, {"type": "node", "id": 2270766964, "lat": 40.8443092, "lon": -73.9813227, "tags": {"amenity": "police", "name": "Fort Lee Police"}}, {"type": "node", "id": 2274572753, "lat": 40.8212772, "lon": -73.9884347, "tags": {"addr:city": "Cliffside Park", "addr:housenumber": "525", "addr:postcode": "07010", "addr:state": "NJ", "addr:street": "Palisade Avenue", "amenity": "police", "name": "Cliffside Park Police Department", "phone": "+1 201-945-3600"}}, {"type": "node", "id": 2274573028, "lat": 40.8214276, "lon": -73.9882574, "tags": {"addr:city": "Cliffside Park", "addr:housenumber": "525", "addr:postcode": "07010", "addr:state": "NJ", "addr:street": "Palisade Avenue", "amenity": "fire_station", "name": "Cliffside Park Fire Department", "phone": "+1 201-313-2061"}}, {"type": "node", "id": 2279513970, "lat": 40.7332294, "lon": -73.982785}, {"type": "node", "id": 2282434896, "lat": 40.5846595, "lon": -73.9662269}, {"type": "node", "id": 2339561524, "lat": 40.790704, "lon": -73.9287971}, {"type": "node", "id": 2380014307, "lat": 40.7224149, "lon": -73.8512054}, {"type": "node", "id": 2380032112, "lat": 40.745239, "lon": -73.869946, "tags": {"amenity": "police", "name": "NYPD 110 PCT", "operator": "New York Police Department", "operator:official": "City of New York Police Department", "operator:short": "NYPD", "operator:wikidata": "Q328473"}}, {"type": "node", "id": 2380152287, "lat": 40.7602789, "lon": -73.7676997, "tags": {"amenity": "police", "name": "NYPD 111 PCT", "operator": "New York Police Department", "operator:official": "City of New York Police Department", "operator:short": "NYPD", "operator:wikidata": "Q328473", "operator:wikipedia": "en:New York City Police Department"}}, {"type": "node", "id": 2380161811, "lat": 40.7263434, "lon": -73.7350632}, {"type": "node", "id": 2380179891, "lat": 40.7071167, "lon": -73.7926624, "tags": {"addr:city": "Jamaica", "addr:housenumber": "168-02", "addr:postcode": "11432", "addr:state": "NY", "addr:street": "91st Avenue", "amenity": "police", "name": "NYPD 103 PCT", "operator": "New York Police Department", "operator:official": "City of New York Police Department", "operator:short": "NYPD", "operator:wikidata": "Q328473", "operator:wikipedia": "en:New York City Police Department", "phone": "+1-718-657-8181", "website": "https://www.nyc.gov/site/nypd/bureaus/patrol/precincts/103rd-precinct.page"}}, {"type": "node", "id": 2380211445, "lat": 40.6987245, "lon": -73.8314459, "tags": {"amenity": "police", "name": "NYPD 102 PCT", "operator": "New York Police Department", "operator:official": "City of New York Police Department", "operator:short": "NYPD", "operator:wikidata": "Q328473"}}, {"type": "node", "id": 2380223013, "lat": 40.6029503, "lon": -73.7499972, "tags": {"amenity": "police", "name": "NYPD 101 PCT"}}, {"type": "node", "id": 2380293531, "lat": 40.7161816, "lon": -73.9974633, "tags": {"amenity": "police", "name": "NYPD 5 PCT", "operator": "New York Police Department", "operator:official": "City of New York Police Department", "operator:short": "NYPD", "operator:wikidata": "Q328473", "operator:wikipedia": "en:New York City Police Department"}}, {"type": "node", "id": 2380301320, "lat": 40.7163634, "lon": -73.9837197, "tags": {"amenity": "police", "name": "NYPD 7 PCT", "operator": "New York Police Department", "operator:official": "City of New York Police Department", "operator:short": "NYPD", "operator:wikidata": "Q328473", "operator:wikipedia": "en:New York City Police Department"}}, {"type": "node", "id": 2380313280, "lat": 40.7203451, "lon": -74.0070419, "tags": {"amenity": "police", "bench": "yes", "drinking_water": "yes", "name": "NYPD 1 PCT", "operator": "New York Police Department", "operator:official": "City of New York Police Department", "operator:short": "NYPD", "operator:wikidata": "Q328473", "operator:wikipedia": "en:New York City Police Department", "toilets": "yes"}}, {"type": "node", "id": 2380318410, "lat": 40.7248218, "lon": -73.9779373, "tags": {"amenity": "police", "name": "NYPD 9 PCT", "operator": "New York Police Department", "operator:official": "City of New York Police Department", "operator:short": "NYPD", "operator:wikidata": "Q328473", "operator:wikipedia": "en:New York City Police Department"}}, {"type": "node", "id": 2380484204, "lat": 40.7426863, "lon": -73.9983835, "tags": {"amenity": "police", "name": "NYPD 10 PCT", "operator": "New York Police Department", "operator:official": "City of New York Police Department", "operator:short": "NYPD", "operator:wikidata": "Q328473", "operator:wikipedia": "en:New York City Police Department"}}, {"type": "node", "id": 2380492748, "lat": 40.7340416, "lon": -74.0054536, "tags": {"amenity": "police", "name": "NYPD 6 PCT", "operator": "New York Police Department", "operator:official": "City of New York Police Department", "operator:short": "NYPD", "operator:wikidata": "Q328473", "operator:wikipedia": "en:New York City Police Department"}}, {"type": "node", "id": 2380526285, "lat": 40.7567621, "lon": -73.9707859, "tags": {"addr:housenumber": "167", "addr:postcode": "10022", "addr:street": "East 51st Street", "amenity": "police", "check_date": "2024-03-22", "name": "NYPD 17 PCT", "operator": "New York Police Department", "operator:official": "City of New York Police Department", "operator:short": "NYPD", "operator:wikidata": "Q328473", "operator:wikipedia": "en:New York City Police Department"}}, {"type": "node", "id": 2381570818, "lat": 40.8157476, "lon": -73.9453969, "tags": {"amenity": "police", "name": "NYPD 32 PCT"}}, {"type": "node", "id": 2481730305, "lat": 40.6230998, "lon": -74.0777206}, {"type": "node", "id": 2481730480, "lat": 40.623569, "lon": -74.0762566}, {"type": "node", "id": 2481730605, "lat": 40.6236288, "lon": -74.0760643}, {"type": "node", "id": 2481732416, "lat": 40.6248145, "lon": -74.0776162}, {"type": "node", "id": 2481732450, "lat": 40.6248341, "lon": -74.0775513}, {"type": "node", "id": 2481732453, "lat": 40.624837, "lon": -74.0776644}, {"type": "node", "id": 2481732461, "lat": 40.6248465, "lon": -74.077633}, {"type": "node", "id": 2481732495, "lat": 40.6248662, "lon": -74.077568}, {"type": "node", "id": 2481732504, "lat": 40.6248761, "lon": -74.0775356}, {"type": "node", "id": 2481732546, "lat": 40.6249377, "lon": -74.0777374}, {"type": "node", "id": 2481732554, "lat": 40.6249431, "lon": -74.0777198}, {"type": "node", "id": 2481732598, "lat": 40.6249838, "lon": -74.0775918}, {"type": "node", "id": 2481732604, "lat": 40.6249894, "lon": -74.0775732}, {"type": "node", "id": 2481732623, "lat": 40.6250097, "lon": -74.0775838}, {"type": "node", "id": 2481732671, "lat": 40.625052, "lon": -74.0777971}, {"type": "node", "id": 2481732721, "lat": 40.6251021, "lon": -74.0776321}, {"type": "node", "id": 2494069787, "lat": 40.6930933, "lon": -73.9969777}, {"type": "node", "id": 2494070372, "lat": 40.6930387, "lon": -73.9970316}, {"type": "node", "id": 2494070390, "lat": 40.6931001, "lon": -73.9970026}, {"type": "node", "id": 2494070398, "lat": 40.6931201, "lon": -73.9973288}, {"type": "node", "id": 2494070399, "lat": 40.6931235, "lon": -73.9973413}, {"type": "node", "id": 2494070406, "lat": 40.6931399, "lon": -73.997148}, {"type": "node", "id": 2494070429, "lat": 40.6931848, "lon": -73.9973121}, {"type": "node", "id": 2494080816, "lat": 40.5979187, "lon": -74.1806376}, {"type": "node", "id": 2494083774, "lat": 40.5977153, "lon": -74.1804658}, {"type": "node", "id": 2494083776, "lat": 40.5977629, "lon": -74.1803337}, {"type": "node", "id": 2494083777, "lat": 40.5977634, "lon": -74.1805248}, {"type": "node", "id": 2494083779, "lat": 40.5977743, "lon": -74.1805094}, {"type": "node", "id": 2494083780, "lat": 40.5977864, "lon": -74.1803008}, {"type": "node", "id": 2494083781, "lat": 40.5977877, "lon": -74.1803642}, {"type": "node", "id": 2494083784, "lat": 40.5978112, "lon": -74.1803312}, {"type": "node", "id": 2494083786, "lat": 40.5978465, "lon": -74.1802817}, {"type": "node", "id": 2494083789, "lat": 40.5978913, "lon": -74.1803367}, {"type": "node", "id": 2494083791, "lat": 40.5979001, "lon": -74.1806637}, {"type": "node", "id": 2494083795, "lat": 40.5979331, "lon": -74.1806553}, {"type": "node", "id": 2494083798, "lat": 40.5980018, "lon": -74.1805127}, {"type": "node", "id": 2494083801, "lat": 40.5980088, "lon": -74.1805029}, {"type": "node", "id": 2494083803, "lat": 40.5980194, "lon": -74.1805343}, {"type": "node", "id": 2494127854, "lat": 40.726592, "lon": -73.9878911}, {"type": "node", "id": 2494127977, "lat": 40.7263986, "lon": -73.9878308}, {"type": "node", "id": 2494127990, "lat": 40.7264635, "lon": -73.9879847}, {"type": "node", "id": 2494128021, "lat": 40.7265019, "lon": -73.9877555}, {"type": "node", "id": 2494128043, "lat": 40.7265579, "lon": -73.9877147}, {"type": "node", "id": 2494128052, "lat": 40.726607, "lon": -73.9876789}, {"type": "node", "id": 2494172017, "lat": 40.6836947, "lon": -74.0001345}, {"type": "node", "id": 2494174132, "lat": 40.683758, "lon": -74.0003609}, {"type": "node", "id": 2494174145, "lat": 40.6838158, "lon": -74.0000761}, {"type": "node", "id": 2494174155, "lat": 40.6838635, "lon": -74.0003101}, {"type": "node", "id": 2494174167, "lat": 40.6839053, "lon": -74.0004597}, {"type": "node", "id": 2494174171, "lat": 40.6839095, "lon": -74.000031}, {"type": "node", "id": 2494174196, "lat": 40.6840146, "lon": -74.000407}, {"type": "node", "id": 2494194479, "lat": 40.7130609, "lon": -73.9612545}, {"type": "node", "id": 2494194742, "lat": 40.7130194, "lon": -73.9611414}, {"type": "node", "id": 2494194763, "lat": 40.7130767, "lon": -73.9611051}, {"type": "node", "id": 2494194772, "lat": 40.7130833, "lon": -73.9611229}, {"type": "node", "id": 2494194818, "lat": 40.7132083, "lon": -73.9609919}, {"type": "node", "id": 2494194824, "lat": 40.7132237, "lon": -73.961034}, {"type": "node", "id": 2494194828, "lat": 40.7132416, "lon": -73.9609708}, {"type": "node", "id": 2494194831, "lat": 40.7132528, "lon": -73.9609637}, {"type": "node", "id": 2494194845, "lat": 40.7133032, "lon": -73.9611011}, {"type": "node", "id": 2494196075, "lat": 40.5600279, "lon": -73.9203072}, {"type": "node", "id": 2494196091, "lat": 40.5600525, "lon": -73.9200573}, {"type": "node", "id": 2494196214, "lat": 40.5601743, "lon": -73.9203321}, {"type": "node", "id": 2494196243, "lat": 40.5601989, "lon": -73.9200823}, {"type": "node", "id": 2494236860, "lat": 40.5540324, "lon": -74.2131009}, {"type": "node", "id": 2494242396, "lat": 40.5536478, "lon": -74.2133038}, {"type": "node", "id": 2494242405, "lat": 40.5536871, "lon": -74.2131963}, {"type": "node", "id": 2494242412, "lat": 40.5536988, "lon": -74.2132069}, {"type": "node", "id": 2494242417, "lat": 40.5537141, "lon": -74.2131293}, {"type": "node", "id": 2494242422, "lat": 40.5537197, "lon": -74.2131344}, {"type": "node", "id": 2494242450, "lat": 40.5538044, "lon": -74.2129577}, {"type": "node", "id": 2494242459, "lat": 40.5538358, "lon": -74.213475}, {"type": "node", "id": 2494242463, "lat": 40.5538528, "lon": -74.2130018}, {"type": "node", "id": 2494242473, "lat": 40.5538757, "lon": -74.2129582}, {"type": "node", "id": 2494257387, "lat": 40.6927458, "lon": -73.9731774}, {"type": "node", "id": 2494257391, "lat": 40.6927795, "lon": -73.9729027}, {"type": "node", "id": 2494257393, "lat": 40.6927862, "lon": -73.9732482}, {"type": "node", "id": 2494257395, "lat": 40.6927936, "lon": -73.9731875}, {"type": "node", "id": 2494257399, "lat": 40.6928076, "lon": -73.9732527}, {"type": "node", "id": 2494257402, "lat": 40.6928309, "lon": -73.9730626}, {"type": "node", "id": 2494257406, "lat": 40.6928466, "lon": -73.972934}, {"type": "node", "id": 2494270017, "lat": 40.6397957, "lon": -73.9666724}, {"type": "node", "id": 2494270024, "lat": 40.6398085, "lon": -73.9665387}, {"type": "node", "id": 2494270134, "lat": 40.6399208, "lon": -73.9666932}, {"type": "node", "id": 2494270144, "lat": 40.6399449, "lon": -73.9665613}, {"type": "node", "id": 2494270204, "lat": 40.6400138, "lon": -73.9667086}, {"type": "node", "id": 2494270267, "lat": 40.6400915, "lon": -73.9665855}, {"type": "node", "id": 2494321866, "lat": 40.6448116, "lon": -74.0774278}, {"type": "node", "id": 2494322084, "lat": 40.6444605, "lon": -74.0774969}, {"type": "node", "id": 2494322099, "lat": 40.6445339, "lon": -74.0775533}, {"type": "node", "id": 2494322105, "lat": 40.6445682, "lon": -74.0775342}, {"type": "node", "id": 2494322106, "lat": 40.6445709, "lon": -74.0774703}, {"type": "node", "id": 2494322111, "lat": 40.64459, "lon": -74.077485}, {"type": "node", "id": 2494322118, "lat": 40.6446252, "lon": -74.0775779}, {"type": "node", "id": 2494322120, "lat": 40.6446327, "lon": -74.077629}, {"type": "node", "id": 2494322126, "lat": 40.6446548, "lon": -74.0775113}, {"type": "node", "id": 2494322132, "lat": 40.6446774, "lon": -74.0775286}, {"type": "node", "id": 2494322133, "lat": 40.6446993, "lon": -74.0776801}, {"type": "node", "id": 2494325585, "lat": 40.6512266, "lon": -73.9756101}, {"type": "node", "id": 2494326202, "lat": 40.6511303, "lon": -73.9755978}, {"type": "node", "id": 2494326210, "lat": 40.6511653, "lon": -73.9752927}, {"type": "node", "id": 2494326221, "lat": 40.6512034, "lon": -73.9756123}, {"type": "node", "id": 2494326222, "lat": 40.6512043, "lon": -73.975619}, {"type": "node", "id": 2494326223, "lat": 40.6512056, "lon": -73.975622}, {"type": "node", "id": 2494326224, "lat": 40.6512074, "lon": -73.9756246}, {"type": "node", "id": 2494326228, "lat": 40.651212, "lon": -73.9756279}, {"type": "node", "id": 2494326231, "lat": 40.6512155, "lon": -73.9755976}, {"type": "node", "id": 2494326233, "lat": 40.6512172, "lon": -73.9756281}, {"type": "node", "id": 2494326235, "lat": 40.6512197, "lon": -73.9756271}, {"type": "node", "id": 2494326237, "lat": 40.6512206, "lon": -73.9755993}, {"type": "node", "id": 2494326239, "lat": 40.651222, "lon": -73.9756254}, {"type": "node", "id": 2494326241, "lat": 40.6512245, "lon": -73.9756038}, {"type": "node", "id": 2494326243, "lat": 40.6512255, "lon": -73.9756202}, {"type": "node", "id": 2494326246, "lat": 40.6512268, "lon": -73.9756136}, {"type": "node", "id": 2494326259, "lat": 40.6512486, "lon": -73.9753091}, {"type": "node", "id": 2494327645, "lat": 40.7676532, "lon": -73.9293633}, {"type": "node", "id": 2494328215, "lat": 40.767469, "lon": -73.9292436}, {"type": "node", "id": 2494328245, "lat": 40.7674254, "lon": -73.9291495}, {"type": "node", "id": 2494328246, "lat": 40.7674263, "lon": -73.9291335}, {"type": "node", "id": 2494328279, "lat": 40.7675014, "lon": -73.9290733}, {"type": "node", "id": 2494328280, "lat": 40.7675031, "lon": -73.9293172}, {"type": "node", "id": 2494328284, "lat": 40.7675084, "lon": -73.9293287}, {"type": "node", "id": 2494328291, "lat": 40.7675196, "lon": -73.9293513}, {"type": "node", "id": 2494328293, "lat": 40.7675204, "lon": -73.9293334}, {"type": "node", "id": 2494328296, "lat": 40.7675261, "lon": -73.9290536}, {"type": "node", "id": 2494328303, "lat": 40.7675384, "lon": -73.9290583}, {"type": "node", "id": 2494328315, "lat": 40.7675603, "lon": -73.9294392}, {"type": "node", "id": 2494328321, "lat": 40.7675772, "lon": -73.9294431}, {"type": "node", "id": 2494328323, "lat": 40.7675821, "lon": -73.9294203}, {"type": "node", "id": 2494328347, "lat": 40.7676191, "lon": -73.9292527}, {"type": "node", "id": 2494328349, "lat": 40.7676217, "lon": -73.929238}, {"type": "node", "id": 2494328356, "lat": 40.7676324, "lon": -73.9292577}, {"type": "node", "id": 2494328371, "lat": 40.7676714, "lon": -73.9293677}, {"type": "node", "id": 2494328373, "lat": 40.7676739, "lon": -73.9293472}, {"type": "node", "id": 2523661330, "lat": 40.7026589, "lon": -73.992901}, {"type": "node", "id": 2523661333, "lat": 40.702696, "lon": -73.9926516}, {"type": "node", "id": 2523661347, "lat": 40.7028147, "lon": -73.9929317}, {"type": "node", "id": 2523661348, "lat": 40.7028155, "lon": -73.9933665}, {"type": "node", "id": 2523661349, "lat": 40.7028184, "lon": -73.9930643}, {"type": "node", "id": 2523661355, "lat": 40.7028504, "lon": -73.9933859}, {"type": "node", "id": 2523661361, "lat": 40.7028962, "lon": -73.993103}, {"type": "node", "id": 2523661365, "lat": 40.7029263, "lon": -73.9934283}, {"type": "node", "id": 2523661368, "lat": 40.7029942, "lon": -73.9934642}, {"type": "node", "id": 2523661372, "lat": 40.7030671, "lon": -73.9935062}, {"type": "node", "id": 2523661377, "lat": 40.7031176, "lon": -73.9935344}, {"type": "node", "id": 2523661386, "lat": 40.703252, "lon": -73.9926403}, {"type": "node", "id": 2523661388, "lat": 40.7032815, "lon": -73.9935255}, {"type": "node", "id": 2523877950, "lat": 40.5126305, "lon": -74.2389121}, {"type": "node", "id": 2523878001, "lat": 40.5126898, "lon": -74.2388069}, {"type": "node", "id": 2523878107, "lat": 40.5128304, "lon": -74.2391069}, {"type": "node", "id": 2523878165, "lat": 40.5128896, "lon": -74.2390017}, {"type": "node", "id": 2524535739, "lat": 40.6880177, "lon": -74.001701}, {"type": "node", "id": 2524535740, "lat": 40.6880453, "lon": -74.0015656}, {"type": "node", "id": 2524535741, "lat": 40.6880725, "lon": -74.0018662}, {"type": "node", "id": 2524535742, "lat": 40.6880786, "lon": -74.0016662}, {"type": "node", "id": 2524535747, "lat": 40.68838, "lon": -74.001374}, {"type": "node", "id": 2524535748, "lat": 40.6884141, "lon": -74.0014768}, {"type": "node", "id": 2524535751, "lat": 40.6884682, "lon": -74.0016397}, {"type": "node", "id": 2524535753, "lat": 40.688474, "lon": -74.0014425}, {"type": "node", "id": 2524535757, "lat": 40.688528, "lon": -74.0016055}, {"type": "node", "id": 2527465120, "lat": 40.6342682, "lon": -74.1220729}, {"type": "node", "id": 2527465126, "lat": 40.6342763, "lon": -74.1219817}, {"type": "node", "id": 2527465230, "lat": 40.634374, "lon": -74.1219968}, {"type": "node", "id": 2527465239, "lat": 40.6343811, "lon": -74.121917}, {"type": "node", "id": 2527465247, "lat": 40.6343864, "lon": -74.121858}, {"type": "node", "id": 2527465317, "lat": 40.6344634, "lon": -74.1221029}, {"type": "node", "id": 2527465318, "lat": 40.6344645, "lon": -74.1220903}, {"type": "node", "id": 2527465377, "lat": 40.6345052, "lon": -74.1220966}, {"type": "node", "id": 2527465409, "lat": 40.6345245, "lon": -74.1218792}, {"type": "node", "id": 2527474755, "lat": 40.6309352, "lon": -74.1168767}, {"type": "node", "id": 2527474767, "lat": 40.630952, "lon": -74.1166326}, {"type": "node", "id": 2527474800, "lat": 40.6310048, "lon": -74.116885}, {"type": "node", "id": 2527474809, "lat": 40.6310216, "lon": -74.1166408}, {"type": "node", "id": 2527511411, "lat": 40.6352127, "lon": -74.1600427}, {"type": "node", "id": 2527511413, "lat": 40.635214, "lon": -74.1601089}, {"type": "node", "id": 2527511416, "lat": 40.635218, "lon": -74.1597972}, {"type": "node", "id": 2527511422, "lat": 40.6352227, "lon": -74.1600424}, {"type": "node", "id": 2527511494, "lat": 40.6353055, "lon": -74.1597943}, {"type": "node", "id": 2527511505, "lat": 40.6353115, "lon": -74.1601057}, {"type": "node", "id": 2527519808, "lat": 40.6438343, "lon": -74.0285846}, {"type": "node", "id": 2527519845, "lat": 40.6440091, "lon": -74.0283995}, {"type": "node", "id": 2527519867, "lat": 40.6441484, "lon": -74.0290958}, {"type": "node", "id": 2527519873, "lat": 40.6441621, "lon": -74.0290814}, {"type": "node", "id": 2527519877, "lat": 40.6441867, "lon": -74.0291214}, {"type": "node", "id": 2527519892, "lat": 40.644314, "lon": -74.0289301}, {"type": "node", "id": 2527519896, "lat": 40.6443268, "lon": -74.0289165}, {"type": "node", "id": 2527519898, "lat": 40.644335, "lon": -74.0289642}, {"type": "node", "id": 2541754708, "lat": 40.840979, "lon": -73.9398299}, {"type": "node", "id": 2541810235, "lat": 40.8392719, "lon": -73.9410732}, {"type": "node", "id": 2543137084, "lat": 40.6483014, "lon": -73.9049408}, {"type": "node", "id": 2543137088, "lat": 40.6483158, "lon": -73.9049725}, {"type": "node", "id": 2543137090, "lat": 40.6483216, "lon": -73.9049635}, {"type": "node", "id": 2543137094, "lat": 40.6483305, "lon": -73.9048963}, {"type": "node", "id": 2543137136, "lat": 40.6484454, "lon": -73.9047204}, {"type": "node", "id": 2543137156, "lat": 40.6484647, "lon": -73.9047422}, {"type": "node", "id": 2543137159, "lat": 40.6484714, "lon": -73.904732}, {"type": "node", "id": 2543137166, "lat": 40.6485096, "lon": -73.9051907}, {"type": "node", "id": 2543137194, "lat": 40.6486661, "lon": -73.9049511}, {"type": "node", "id": 2543252882, "lat": 40.654663, "lon": -73.8637151}, {"type": "node", "id": 2543252913, "lat": 40.6547444, "lon": -73.8636197}, {"type": "node", "id": 2543252921, "lat": 40.6547765, "lon": -73.8635878}, {"type": "node", "id": 2543253321, "lat": 40.6558941, "lon": -73.863912}, {"type": "node", "id": 2543253367, "lat": 40.6561785, "lon": -73.8642101}, {"type": "node", "id": 2543253368, "lat": 40.656268, "lon": -73.8642805}, {"type": "node", "id": 2543253402, "lat": 40.6551598, "lon": -73.8657802}, {"type": "node", "id": 2543253411, "lat": 40.6552735, "lon": -73.8654989}, {"type": "node", "id": 2543254897, "lat": 40.6563631, "lon": -73.8666844}, {"type": "node", "id": 2543254998, "lat": 40.6567793, "lon": -73.8677727}, {"type": "node", "id": 2545009622, "lat": 40.6115267, "lon": -74.0703618}, {"type": "node", "id": 2545009752, "lat": 40.6116779, "lon": -74.0705095}, {"type": "node", "id": 2545009758, "lat": 40.6116839, "lon": -74.0704974}, {"type": "node", "id": 2545009785, "lat": 40.6117228, "lon": -74.0705482}, {"type": "node", "id": 2545009835, "lat": 40.6117762, "lon": -74.0704409}, {"type": "node", "id": 2545093038, "lat": 40.6709255, "lon": -73.8817321}, {"type": "node", "id": 2545093068, "lat": 40.6709428, "lon": -73.8816146}, {"type": "node", "id": 2545093086, "lat": 40.670957, "lon": -73.8816182}, {"type": "node", "id": 2545093124, "lat": 40.6709659, "lon": -73.8815578}, {"type": "node", "id": 2545093323, "lat": 40.6710548, "lon": -73.8815804}, {"type": "node", "id": 2545093329, "lat": 40.6710562, "lon": -73.8814963}, {"type": "node", "id": 2545093366, "lat": 40.6710668, "lon": -73.881499}, {"type": "node", "id": 2545093471, "lat": 40.6711132, "lon": -73.8811088}, {"type": "node", "id": 2545093673, "lat": 40.6712275, "lon": -73.8813228}, {"type": "node", "id": 2545093677, "lat": 40.6712328, "lon": -73.8812864}, {"type": "node", "id": 2545093695, "lat": 40.6712443, "lon": -73.8812893}, {"type": "node", "id": 2545093717, "lat": 40.6712603, "lon": -73.881817}, {"type": "node", "id": 2545093726, "lat": 40.6712652, "lon": -73.8811473}, {"type": "node", "id": 2545093767, "lat": 40.6712967, "lon": -73.8813403}, {"type": "node", "id": 2545093801, "lat": 40.6713292, "lon": -73.8813486}, {"type": "node", "id": 2545616821, "lat": 40.744357, "lon": -73.7161172}, {"type": "node", "id": 2545616866, "lat": 40.7443858, "lon": -73.7159817}, {"type": "node", "id": 2545617016, "lat": 40.7445457, "lon": -73.7161866}, {"type": "node", "id": 2545617028, "lat": 40.7445517, "lon": -73.7161584}, {"type": "node", "id": 2545617049, "lat": 40.7445735, "lon": -73.7161664}, {"type": "node", "id": 2545617072, "lat": 40.7445963, "lon": -73.7160591}, {"type": "node", "id": 2546112060, "lat": 40.5739641, "lon": -74.1056339}, {"type": "node", "id": 2546112278, "lat": 40.5739945, "lon": -74.1053898}, {"type": "node", "id": 2546112614, "lat": 40.5740537, "lon": -74.1058005}, {"type": "node", "id": 2546112686, "lat": 40.5740721, "lon": -74.1055341}, {"type": "node", "id": 2546113349, "lat": 40.5741399, "lon": -74.1052553}, {"type": "node", "id": 2546114582, "lat": 40.5743071, "lon": -74.1055663},